,cdtaCode,CDTAName,Shape_Leng,Shape_Area,BoroName,index_right,station,net_traffic,matches,ogc_fid,station_id,complex_id,gtfs_stop_id,division,line,stop_name,borough,daytime_routes,structure,gtfs_latitude,gtfs_longitude,north_direction_label,south_direction_label
0,BK01,BK01 Williamsburg-Greenpoint (CD 1 Equivalent),65655.7415766,131659726.609,Brooklyn,244.0,flushing_av,1645919.0,flushing_av,288.0,287.0,287,G31,IND,Crosstown,flushing_av,Bk,G,Subway,40.700377,-73.950234,Queens,Church Av
1,BK01,BK01 Williamsburg-Greenpoint (CD 1 Equivalent),65655.7415766,131659726.609,Brooklyn,474.0,hewes_st,387242.0,hewes_st,100.0,100.0,100,M14,BMT,Jamaica,hewes_st,Bk,J M,Elevated,40.70687,-73.953431,Jamaica - Middle Village,Manhattan
2,BK01,BK01 Williamsburg-Greenpoint (CD 1 Equivalent),65655.7415766,131659726.609,Brooklyn,221.0,marcy_av,1891092.0,marcy_av,101.0,101.0,101,M16,BMT,Jamaica,marcy_av,Bk,J M Z,Elevated,40.708359,-73.957757,Jamaica - Middle Village,Manhattan
3,BK01,BK01 Williamsburg-Greenpoint (CD 1 Equivalent),65655.7415766,131659726.609,Brooklyn,212.0,metropolitan_av,2040609.0,metropolitan_av,286.0,285.0,629,G29,IND,Crosstown,metropolitan_av,Bk,G,Subway,40.712792,-73.951418,Queens,Church Av
4,BK01,BK01 Williamsburg-Greenpoint (CD 1 Equivalent),65655.7415766,131659726.609,Brooklyn,101.0,bedford_av,4110767.0,bedford_av,120.0,120.0,120,L08,BMT,Canarsie,bedford_av,Bk,L,Subway,40.717304,-73.956872,Manhattan,Canarsie - Rockaway Parkway
5,BK01,BK01 Williamsburg-Greenpoint (CD 1 Equivalent),65655.7415766,131659726.609,Brooklyn,245.0,nassau_av,1619174.0,nassau_av,285.0,284.0,284,G28,IND,Crosstown,nassau_av,Bk,G,Subway,40.724635,-73.951277,Queens,Church Av
6,BK01,BK01 Williamsburg-Greenpoint (CD 1 Equivalent),65655.7415766,131659726.609,Brooklyn,289.0,greenpoint_av,1318616.0,greenpoint_av,284.0,283.0,283,G26,IND,Crosstown,greenpoint_av,Bk,G,Subway,40.731352,-73.954449,Queens,Church Av
7,BK01,BK01 Williamsburg-Greenpoint (CD 1 Equivalent),65655.7415766,131659726.609,Brooklyn,257.0,lorimer_st,1516761.0,lorimer_st,99.0,99.0,99,M13,BMT,Jamaica,lorimer_st,Bk,J M,Elevated,40.703869,-73.947408,Jamaica - Middle Village,Manhattan
8,BK01,BK01 Williamsburg-Greenpoint (CD 1 Equivalent),65655.7415766,131659726.609,Brooklyn,163.0,broadway,2519165.0,broadway,287.0,286.0,286,G30,IND,Crosstown,broadway,Bk,G,Subway,40.706092,-73.950308,Queens,Church Av
9,BK01,BK01 Williamsburg-Greenpoint (CD 1 Equivalent),65655.7415766,131659726.609,Brooklyn,359.0,morgan_av,902829.0,morgan_av,125.0,125.0,125,L14,BMT,Canarsie,morgan_av,Bk,L,Subway,40.706152,-73.933147,Manhattan,Canarsie - Rockaway Parkway
10,BK01,BK01 Williamsburg-Greenpoint (CD 1 Equivalent),65655.7415766,131659726.609,Brooklyn,363.0,montrose_av,876509.0,montrose_av,124.0,124.0,124,L13,BMT,Canarsie,montrose_av,Bk,L,Subway,40.707739,-73.93985,Manhattan,Canarsie - Rockaway Parkway
11,BK01,BK01 Williamsburg-Greenpoint (CD 1 Equivalent),65655.7415766,131659726.609,Brooklyn,109.0,grand_st,3691545.0,grand_st,123.0,123.0,123,L12,BMT,Canarsie,grand_st,Bk,L,Subway,40.711926,-73.94067,Manhattan,Canarsie - Rockaway Parkway
12,BK01,BK01 Williamsburg-Greenpoint (CD 1 Equivalent),65655.7415766,131659726.609,Brooklyn,258.0,lorimer_st,1516761.0,lorimer_st,121.0,121.0,629,L10,BMT,Canarsie,lorimer_st,Bk,L,Subway,40.714063,-73.950275,Manhattan,Canarsie - Rockaway Parkway
13,BK01,BK01 Williamsburg-Greenpoint (CD 1 Equivalent),65655.7415766,131659726.609,Brooklyn,308.0,graham_av,1218305.0,graham_av,122.0,122.0,122,L11,BMT,Canarsie,graham_av,Bk,L,Subway,40.714565,-73.944053,Manhattan,Canarsie - Rockaway Parkway
14,BK02,BK02 Downtown Brooklyn-Fort Greene (CD 2 Approximation),65257.0948296,75914034.5073,Brooklyn,60.0,atl_av_barclay,6533877.0,atlantic_av_barclays_ctr,339.0,338.0,617,235,IRT,Eastern Pky,atlantic_av_barclays_ctr,Bk,2 3,Subway,40.684359,-73.977666,Manhattan,Flatbush - New Lots
15,BK02,BK02 Downtown Brooklyn-Fort Greene (CD 2 Approximation),65257.0948296,75914034.5073,Brooklyn,59.0,atl_av_barclay,6533877.0,atlantic_av_barclays_ctr,40.0,40.0,617,D24,BMT,Broadway - Brighton,atlantic_av_barclays_ctr,Bk,B Q,Subway,40.68446,-73.97689,Manhattan,Brighton Beach & Coney Island
16,BK02,BK02 Downtown Brooklyn-Fort Greene (CD 2 Approximation),65257.0948296,75914034.5073,Brooklyn,443.0,lafayette_av,535372.0,lafayette_av,177.0,176.0,176,A43,IND,8th Av - Fulton St,lafayette_av,Bk,C,Subway,40.686113,-73.973946,Manhattan,Euclid Av
17,BK02,BK02 Downtown Brooklyn-Fort Greene (CD 2 Approximation),65257.0948296,75914034.5073,Brooklyn,25.0,fulton_st,11385559.0,fulton_st,293.0,292.0,292,G36,IND,Crosstown,fulton_st,Bk,G,Subway,40.687119,-73.975375,Queens,Church Av
18,BK02,BK02 Downtown Brooklyn-Fort Greene (CD 2 Approximation),65257.0948296,75914034.5073,Brooklyn,265.0,nevins_st,1504528.0,nevins_st,338.0,337.0,337,234,IRT,Eastern Pky,nevins_st,Bk,2 3 4 5,Subway,40.688246,-73.980492,Manhattan,Flatbush - Utica - New Lots
19,BK02,BK02 Downtown Brooklyn-Fort Greene (CD 2 Approximation),65257.0948296,75914034.5073,Brooklyn,320.0,hoyt_st,1114470.0,hoyt_st,337.0,336.0,336,233,IRT,Eastern Pky,hoyt_st,Bk,2 3,Subway,40.690545,-73.985065,Manhattan,Flatbush - New Lots
20,BK02,BK02 Downtown Brooklyn-Fort Greene (CD 2 Approximation),65257.0948296,75914034.5073,Brooklyn,276.0,hoyt_scher,1393533.0,hoyt_st,337.0,336.0,336,233,IRT,Eastern Pky,hoyt_st,Bk,2 3,Subway,40.690545,-73.985065,Manhattan,Flatbush - New Lots
21,BK02,BK02 Downtown Brooklyn-Fort Greene (CD 2 Approximation),65257.0948296,75914034.5073,Brooklyn,196.0,bergen_st,2207446.0,bergen_st,237.0,236.0,236,F20,IND,6th Av - Culver,bergen_st,Bk,F G,Subway,40.686145,-73.990862,Manhattan - Queens,Church Av - Coney Island
22,BK02,BK02 Downtown Brooklyn-Fort Greene (CD 2 Approximation),65257.0948296,75914034.5073,Brooklyn,88.0,jay_st_metrotec,4625876.0,jay_st_metrotech,175.0,174.0,636,A41,IND,8th Av - Fulton St,jay_st_metrotech,Bk,A C F,Subway,40.692338,-73.987342,Manhattan,Euclid - Lefferts - Rockaways - Coney Island
23,BK02,BK02 Downtown Brooklyn-Fort Greene (CD 2 Approximation),65257.0948296,75914034.5073,Brooklyn,112.0,borough_hall,3687295.0,borough_hall,416.0,415.0,620,423,IRT,Eastern Pky,borough_hall,Bk,4 5,Subway,40.692404,-73.990151,Manhattan,Flatbush - Utica
24,BK02,BK02 Downtown Brooklyn-Fort Greene (CD 2 Approximation),65257.0948296,75914034.5073,Brooklyn,111.0,borough_hall,3687295.0,borough_hall,336.0,335.0,620,232,IRT,Clark St,borough_hall,Bk,2 3,Subway,40.693219,-73.989998,Manhattan,Flatbush - New Lots
25,BK02,BK02 Downtown Brooklyn-Fort Greene (CD 2 Approximation),65257.0948296,75914034.5073,Brooklyn,379.0,court_sq_23_st,778183.0,court_st,24.0,24.0,620,R28,BMT,Broadway,court_st,Bk,R,Subway,40.6941,-73.991777,Manhattan,Bay Ridge - 95 St
26,BK02,BK02 Downtown Brooklyn-Fort Greene (CD 2 Approximation),65257.0948296,75914034.5073,Brooklyn,496.0,clark_st,238994.0,clark_st,335.0,334.0,334,231,IRT,Clark St,clark_st,Bk,2 3,Subway,40.697466,-73.993086,Manhattan,Flatbush - New Lots
27,BK02,BK02 Downtown Brooklyn-Fort Greene (CD 2 Approximation),65257.0948296,75914034.5073,Brooklyn,267.0,thirty_st,1489587.0,high_st,174.0,173.0,173,A40,IND,8th Av - Fulton St,high_st,Bk,A C,Subway,40.699337,-73.990531,Manhattan,Euclid - Lefferts - Rockaways
28,BK02,BK02 Downtown Brooklyn-Fort Greene (CD 2 Approximation),65257.0948296,75914034.5073,Brooklyn,277.0,high_st,1388286.0,high_st,174.0,173.0,173,A40,IND,8th Av - Fulton St,high_st,Bk,A C,Subway,40.699337,-73.990531,Manhattan,Euclid - Lefferts - Rockaways
29,BK02,BK02 Downtown Brooklyn-Fort Greene (CD 2 Approximation),65257.0948296,75914034.5073,Brooklyn,148.0,thirty_third_st,2609476.0,high_st,174.0,173.0,173,A40,IND,8th Av - Fulton St,high_st,Bk,A C,Subway,40.699337,-73.990531,Manhattan,Euclid - Lefferts - Rockaways
30,BK02,BK02 Downtown Brooklyn-Fort Greene (CD 2 Approximation),65257.0948296,75914034.5073,Brooklyn,252.0,clinton_wash_av,1534772.0,clinton_washington_avs,178.0,177.0,177,A44,IND,8th Av - Fulton St,clinton_washington_avs,Bk,C,Subway,40.683263,-73.965838,Manhattan,Euclid Av
31,BK02,BK02 Downtown Brooklyn-Fort Greene (CD 2 Approximation),65257.0948296,75914034.5073,Brooklyn,253.0,clinton_wash_av,1534772.0,clinton_washington_avs,292.0,291.0,291,G35,IND,Crosstown,clinton_washington_avs,Bk,G,Subway,40.688089,-73.966839,Queens,Church Av
32,BK02,BK02 Downtown Brooklyn-Fort Greene (CD 2 Approximation),65257.0948296,75914034.5073,Brooklyn,356.0,classon_av,909429.0,classon_av,291.0,290.0,290,G34,IND,Crosstown,classon_av,Bk,G,Subway,40.688873,-73.96007,Queens,Church Av
33,BK02,BK02 Downtown Brooklyn-Fort Greene (CD 2 Approximation),65257.0948296,75914034.5073,Brooklyn,134.0,dekalb_av,3129335.0,dekalb_av,26.0,26.0,26,R30,BMT,Broadway - Brighton,dekalb_av,Bk,B Q R,Subway,40.690635,-73.981824,Manhattan,Coney Island - Bay Ridge
34,BK02,BK02 Downtown Brooklyn-Fort Greene (CD 2 Approximation),65257.0948296,75914034.5073,Brooklyn,87.0,jay_st_metrotec,4625876.0,jay_st_metrotech,25.0,25.0,636,R29,BMT,Broadway,jay_st_metrotech,Bk,R,Subway,40.69218,-73.985942,Manhattan,Bay Ridge - 95 St
35,BK02,BK02 Downtown Brooklyn-Fort Greene (CD 2 Approximation),65257.0948296,75914034.5073,Brooklyn,387.0,york_st,746930.0,york_st,236.0,235.0,235,F18,IND,6th Av - Culver,york_st,Bk,F,Subway,40.701397,-73.986751,Manhattan,Coney Island
36,BK03,BK03 Bedford-Stuyvesant (CD 3 Approximation),37550.8531883,78196220.9795,Brooklyn,150.0,franklin_av,2587016.0,franklin_av,139.0,139.0,627,S01,BMT,Franklin Shuttle,franklin_av,Bk,S,Elevated,40.680596,-73.955827,,Prospect Park
37,BK03,BK03 Bedford-Stuyvesant (CD 3 Approximation),37550.8531883,78196220.9795,Brooklyn,151.0,franklin_av,2587016.0,franklin_av,179.0,178.0,627,A45,IND,8th Av - Fulton St,franklin_av,Bk,C,Subway,40.68138,-73.956848,Manhattan,Euclid Av
38,BK03,BK03 Bedford-Stuyvesant (CD 3 Approximation),37550.8531883,78196220.9795,Brooklyn,199.0,utica_av,2156618.0,utica_av,182.0,181.0,181,A48,IND,8th Av - Fulton St,utica_av,Bk,A C,Subway,40.679364,-73.930729,Manhattan,Euclid - Lefferts - Rockaways
39,BK03,BK03 Bedford-Stuyvesant (CD 3 Approximation),37550.8531883,78196220.9795,Brooklyn,345.0,kingston_throop,971390.0,kingston_throop_avs,181.0,180.0,180,A47,IND,8th Av - Fulton St,kingston_throop_avs,Bk,C,Subway,40.679921,-73.940858,Manhattan,Euclid Av
40,BK03,BK03 Bedford-Stuyvesant (CD 3 Approximation),37550.8531883,78196220.9795,Brooklyn,136.0,nostrand_av,3115645.0,nostrand_av,180.0,179.0,179,A46,IND,8th Av - Fulton St,nostrand_av,Bk,A C,Subway,40.680438,-73.950426,Manhattan,Euclid - Lefferts - Rockaways
41,BK03,BK03 Bedford-Stuyvesant (CD 3 Approximation),37550.8531883,78196220.9795,Brooklyn,397.0,myrtle_willough,711462.0,myrtle_willoughby_avs,289.0,288.0,288,G32,IND,Crosstown,myrtle_willoughby_avs,Bk,G,Subway,40.694568,-73.949046,Queens,Church Av
42,BK03,BK03 Bedford-Stuyvesant (CD 3 Approximation),37550.8531883,78196220.9795,Brooklyn,310.0,myrtle_av,1206642.0,myrtle_av,97.0,97.0,97,M11,BMT,Jamaica,myrtle_av,Bk,J M Z,Elevated,40.697207,-73.935657,Jamaica - Middle Village,Manhattan
43,BK03,BK03 Bedford-Stuyvesant (CD 3 Approximation),37550.8531883,78196220.9795,Brooklyn,243.0,flushing_av,1645919.0,flushing_av,98.0,98.0,98,M12,BMT,Jamaica,flushing_av,Bk,J M,Elevated,40.70026,-73.941126,Jamaica - Middle Village,Manhattan
44,BK03,BK03 Bedford-Stuyvesant (CD 3 Approximation),37550.8531883,78196220.9795,Brooklyn,326.0,bedford_nostran,1092987.0,bedford_nostrand_avs,290.0,289.0,289,G33,IND,Crosstown,bedford_nostrand_avs,Bk,G,Subway,40.689627,-73.953522,Queens,Church Av
45,BK04,BK04 Bushwick (CD 4 Equivalent),36981.7226597,56653384.9071,Brooklyn,280.0,broadway_jct,1376938.0,broadway_jct,92.0,92.0,621,J27,BMT,Jamaica,broadway_jct,Bk,J Z,Elevated,40.679498,-73.904512,Jamaica,Manhattan
46,BK04,BK04 Bushwick (CD 4 Equivalent),36981.7226597,56653384.9071,Brooklyn,484.0,bushwick_av,331241.0,bushwick_av_aberdeen_st,131.0,131.0,131,L21,BMT,Canarsie,bushwick_av_aberdeen_st,Bk,L,Subway,40.682829,-73.905249,Manhattan,Canarsie - Rockaway Parkway
47,BK04,BK04 Bushwick (CD 4 Equivalent),36981.7226597,56653384.9071,Brooklyn,233.0,halsey_st,1697778.0,halsey_st,94.0,94.0,94,J29,BMT,Jamaica,halsey_st,Bk,J,Elevated,40.68637,-73.916559,Jamaica,Manhattan
48,BK04,BK04 Bushwick (CD 4 Equivalent),36981.7226597,56653384.9071,Brooklyn,385.0,wilson_av,754015.0,wilson_av,130.0,130.0,130,L20,BMT,Canarsie,wilson_av,Bk,L,Subway,40.688764,-73.904046,Manhattan,Canarsie - Rockaway Parkway
49,BK04,BK04 Bushwick (CD 4 Equivalent),36981.7226597,56653384.9071,Brooklyn,391.0,gates_av,727908.0,gates_av,95.0,95.0,95,J30,BMT,Jamaica,gates_av,Bk,J Z,Elevated,40.68963,-73.92227,Jamaica,Manhattan
50,BK04,BK04 Bushwick (CD 4 Equivalent),36981.7226597,56653384.9071,Brooklyn,431.0,kosciuszko_st,565920.0,kosciuszko_st,96.0,96.0,96,J31,BMT,Jamaica,kosciuszko_st,Bk,J,Elevated,40.693342,-73.928814,Jamaica,Manhattan
51,BK04,BK04 Bushwick (CD 4 Equivalent),36981.7226597,56653384.9071,Brooklyn,425.0,central_av,592487.0,central_av,114.0,114.0,114,M10,BMT,Myrtle Av,central_av,Bk,M,Elevated,40.697857,-73.927397,Manhattan,Metropolitan Av
52,BK04,BK04 Bushwick (CD 4 Equivalent),36981.7226597,56653384.9071,Brooklyn,398.0,knickerbocker,709262.0,knickerbocker_av,113.0,113.0,113,M09,BMT,Myrtle Av,knickerbocker_av,Bk,M,Elevated,40.698664,-73.919711,Manhattan,Metropolitan Av
53,BK04,BK04 Bushwick (CD 4 Equivalent),36981.7226597,56653384.9071,Brooklyn,169.0,myrtle_wyckoff,2435668.0,myrtle_wyckoff_avs,112.0,112.0,630,M08,BMT,Myrtle Av,myrtle_wyckoff_avs,Bk,M,Elevated,40.69943,-73.912385,Manhattan,Metropolitan Av
54,BK04,BK04 Bushwick (CD 4 Equivalent),36981.7226597,56653384.9071,Brooklyn,170.0,myrtle_wyckoff,2435668.0,myrtle_wyckoff_avs,128.0,128.0,630,L17,BMT,Canarsie,myrtle_wyckoff_avs,Bk,L,Subway,40.699814,-73.911586,Manhattan,Canarsie - Rockaway Parkway
55,BK04,BK04 Bushwick (CD 4 Equivalent),36981.7226597,56653384.9071,Brooklyn,135.0,dekalb_av,3129335.0,dekalb_av,127.0,127.0,127,L16,BMT,Canarsie,dekalb_av,Bk,L,Subway,40.703811,-73.918425,Manhattan,Canarsie - Rockaway Parkway
56,BK04,BK04 Bushwick (CD 4 Equivalent),36981.7226597,56653384.9071,Brooklyn,400.0,jefferson_st,691330.0,jefferson_st,126.0,126.0,126,L15,BMT,Canarsie,jefferson_st,Bk,L,Subway,40.706607,-73.922913,Manhattan,Canarsie - Rockaway Parkway
57,BK05,BK05 East New York-Cypress Hills (CD 5 Approximation),78801.9020206,165455764.992,Brooklyn,281.0,broadway_jct,1376938.0,broadway_jct,132.0,132.0,621,L22,BMT,Canarsie,broadway_jct,Bk,L,Elevated,40.678856,-73.90324,Manhattan,Canarsie - Rockaway Parkway
58,BK05,BK05 East New York-Cypress Hills (CD 5 Approximation),78801.9020206,165455764.992,Brooklyn,437.0,east_105_st,548045.0,e_105_st,137.0,137.0,137,L28,BMT,Canarsie,e_105_st,Bk,L,At Grade,40.650573,-73.899485,Manhattan,Canarsie - Rockaway Parkway
59,BK05,BK05 East New York-Cypress Hills (CD 5 Approximation),78801.9020206,165455764.992,Brooklyn,422.0,pennsylvania_av,596192.0,pennsylvania_av,351.0,350.0,350,255,IRT,Eastern Pky,pennsylvania_av,Bk,3,Elevated,40.664635,-73.894895,Manhattan,New Lots
60,BK05,BK05 East New York-Cypress Hills (CD 5 Approximation),78801.9020206,165455764.992,Brooklyn,451.0,van_siclen_ave,499795.0,van_siclen_av,352.0,351.0,351,256,IRT,Eastern Pky,van_siclen_av,Bk,3,Elevated,40.665449,-73.889395,Manhattan,New Lots
61,BK05,BK05 East New York-Cypress Hills (CD 5 Approximation),78801.9020206,165455764.992,Brooklyn,337.0,van_siclen_av,1030979.0,van_siclen_av,352.0,351.0,351,256,IRT,Eastern Pky,van_siclen_av,Bk,3,Elevated,40.665449,-73.889395,Manhattan,New Lots
62,BK05,BK05 East New York-Cypress Hills (CD 5 Approximation),78801.9020206,165455764.992,Brooklyn,394.0,new_lots,714837.0,new_lots_av,353.0,352.0,352,257,IRT,Eastern Pky,new_lots_av,Bk,3,Elevated,40.666235,-73.884079,Manhattan,
63,BK05,BK05 East New York-Cypress Hills (CD 5 Approximation),78801.9020206,165455764.992,Brooklyn,334.0,new_lots_av,1036931.0,new_lots_av,353.0,352.0,352,257,IRT,Eastern Pky,new_lots_av,Bk,3,Elevated,40.666235,-73.884079,Manhattan,
64,BK05,BK05 East New York-Cypress Hills (CD 5 Approximation),78801.9020206,165455764.992,Brooklyn,450.0,van_siclen_ave,499795.0,van_siclen_av,187.0,186.0,186,A53,IND,8th Av - Fulton St,van_siclen_av,Bk,C,Subway,40.67271,-73.890358,Manhattan,Euclid Av
65,BK05,BK05 East New York-Cypress Hills (CD 5 Approximation),78801.9020206,165455764.992,Brooklyn,336.0,van_siclen_av,1030979.0,van_siclen_av,187.0,186.0,186,A53,IND,8th Av - Fulton St,van_siclen_av,Bk,C,Subway,40.67271,-73.890358,Manhattan,Euclid Av
66,BK05,BK05 East New York-Cypress Hills (CD 5 Approximation),78801.9020206,165455764.992,Brooklyn,462.0,shepherd_av,432315.0,shepherd_av,188.0,187.0,187,A54,IND,8th Av - Fulton St,shepherd_av,Bk,C,Subway,40.67413,-73.88075,Manhattan,Euclid Av
67,BK05,BK05 East New York-Cypress Hills (CD 5 Approximation),78801.9020206,165455764.992,Brooklyn,482.0,liberty_av,345337.0,liberty_av,186.0,185.0,185,A52,IND,8th Av - Fulton St,liberty_av,Bk,C,Subway,40.674542,-73.896548,Manhattan,Euclid Av
68,BK05,BK05 East New York-Cypress Hills (CD 5 Approximation),78801.9020206,165455764.992,Brooklyn,500.0,atlantic_av,205741.0,atlantic_av,133.0,133.0,133,L24,BMT,Canarsie,atlantic_av,Bk,L,Elevated,40.675345,-73.903097,Manhattan,Canarsie - Rockaway Parkway
69,BK05,BK05 East New York-Cypress Hills (CD 5 Approximation),78801.9020206,165455764.992,Brooklyn,321.0,euclid_av,1110762.0,euclid_av,189.0,188.0,188,A55,IND,8th Av - Fulton St,euclid_av,Bk,A C,Subway,40.675377,-73.872106,Manhattan,Lefferts - Rockaways
70,BK05,BK05 East New York-Cypress Hills (CD 5 Approximation),78801.9020206,165455764.992,Brooklyn,469.0,alabama_av,399626.0,alabama_av,91.0,91.0,91,J24,BMT,Jamaica,alabama_av,Bk,J,Elevated,40.676992,-73.898654,Jamaica,Manhattan
71,BK05,BK05 East New York-Cypress Hills (CD 5 Approximation),78801.9020206,165455764.992,Brooklyn,335.0,van_siclen_av,1030979.0,van_siclen_av,90.0,90.0,90,J23,BMT,Jamaica,van_siclen_av,Bk,J Z,Elevated,40.678024,-73.891688,Jamaica,Manhattan
72,BK05,BK05 East New York-Cypress Hills (CD 5 Approximation),78801.9020206,165455764.992,Brooklyn,360.0,grant_av,889158.0,grant_av,190.0,189.0,189,A57,IND,Liberty Av,grant_av,Bk,A,Subway,40.677044,-73.86505,Manhattan,Lefferts - Rockaways
73,BK05,BK05 East New York-Cypress Hills (CD 5 Approximation),78801.9020206,165455764.992,Brooklyn,449.0,van_siclen_ave,499795.0,van_siclen_av,90.0,90.0,90,J23,BMT,Jamaica,van_siclen_av,Bk,J Z,Elevated,40.678024,-73.891688,Jamaica,Manhattan
74,BK05,BK05 East New York-Cypress Hills (CD 5 Approximation),78801.9020206,165455764.992,Brooklyn,436.0,cleveland_st,550042.0,cleveland_st,89.0,89.0,89,J22,BMT,Jamaica,cleveland_st,Bk,J,Elevated,40.679947,-73.884639,Jamaica,Manhattan
75,BK05,BK05 East New York-Cypress Hills (CD 5 Approximation),78801.9020206,165455764.992,Brooklyn,433.0,norwood_av,565035.0,norwood_av,88.0,88.0,88,J21,BMT,Jamaica,norwood_av,Bk,J Z,Elevated,40.68141,-73.880039,Jamaica,Manhattan
76,BK05,BK05 East New York-Cypress Hills (CD 5 Approximation),78801.9020206,165455764.992,Brooklyn,354.0,crescent_st,918536.0,crescent_st,87.0,87.0,87,J20,BMT,Jamaica,crescent_st,Bk,J Z,Elevated,40.683194,-73.873785,Jamaica,Manhattan
77,BK05,BK05 East New York-Cypress Hills (CD 5 Approximation),78801.9020206,165455764.992,Brooklyn,499.0,cypress_hills,214454.0,cypress_hills,86.0,86.0,86,J19,BMT,Jamaica,cypress_hills,Bk,J,Elevated,40.689941,-73.87255,Jamaica,Manhattan
78,BK06,BK06 Park Slope-Carroll Gardens (CD 6 Approximation),77356.7123865,86641009.6361,Brooklyn,76.0,7_av,5070083.0,7_av,241.0,240.0,240,F24,IND,6th Av - Culver,7_av,Bk,F G,Subway,40.666271,-73.980305,Manhattan - Queens,Church Av - Coney Island
79,BK06,BK06 Park Slope-Carroll Gardens (CD 6 Approximation),77356.7123865,86641009.6361,Brooklyn,340.0,union_st,1015895.0,union_st,28.0,28.0,28,R32,BMT,4th Av,union_st,Bk,R,Subway,40.677316,-73.98311,Manhattan,Bay Ridge - 95 St
80,BK06,BK06 Park Slope-Carroll Gardens (CD 6 Approximation),77356.7123865,86641009.6361,Brooklyn,197.0,bergen_st,2207446.0,bergen_st,340.0,339.0,339,236,IRT,Eastern Pky,bergen_st,Bk,2 3,Subway,40.680829,-73.975098,Manhattan,Flatbush - New Lots
81,BK06,BK06 Park Slope-Carroll Gardens (CD 6 Approximation),77356.7123865,86641009.6361,Brooklyn,58.0,atl_av_barclay,6533877.0,atlantic_av_barclays_ctr,27.0,27.0,617,R31,BMT,4th Av,atlantic_av_barclays_ctr,Bk,D N R,Subway,40.683666,-73.97881,Manhattan,Coney Island - Bay Ridge
82,BK06,BK06 Park Slope-Carroll Gardens (CD 6 Approximation),77356.7123865,86641009.6361,Brooklyn,357.0,9th_street,905389.0,9_st,29.0,29.0,608,R33,BMT,4th Av,9_st,Bk,R,Subway,40.670847,-73.988302,Manhattan,Bay Ridge - 95 St
83,BK06,BK06 Park Slope-Carroll Gardens (CD 6 Approximation),77356.7123865,86641009.6361,Brooklyn,367.0,smith_9_st,840426.0,smith_9_sts,239.0,238.0,238,F22,IND,6th Av - Culver,smith_9_sts,Bk,F G,Viaduct,40.67358,-73.995959,Manhattan - Queens,Church Av - Coney Island
84,BK06,BK06 Park Slope-Carroll Gardens (CD 6 Approximation),77356.7123865,86641009.6361,Brooklyn,309.0,carroll_st,1206984.0,carroll_st,238.0,237.0,237,F21,IND,6th Av - Culver,carroll_st,Bk,F G,Subway,40.680303,-73.995048,Manhattan - Queens,Church Av - Coney Island
85,BK06,BK06 Park Slope-Carroll Gardens (CD 6 Approximation),77356.7123865,86641009.6361,Brooklyn,392.0,grand_army_plaz,723302.0,grand_army_plaza,341.0,340.0,340,237,IRT,Eastern Pky,grand_army_plaza,Bk,2 3,Subway,40.675235,-73.971046,Manhattan,Flatbush - New Lots
86,BK07,BK07 Sunset Park-Windsor Terrace (CD 7 Approximation),93916.413345,105549400.087,Brooklyn,85.0,8_av,4642534.0,8_av,71.0,71.0,71,N02,BMT,Sea Beach,8_av,Bk,N,Open Cut,40.635064,-74.011719,Manhattan,Coney Island
87,BK07,BK07 Sunset Park-Windsor Terrace (CD 7 Approximation),93916.413345,105549400.087,Brooklyn,417.0,25_st,629737.0,25_st,31.0,31.0,31,R35,BMT,4th Av,25_st,Bk,R,Subway,40.660397,-73.998091,Manhattan,Bay Ridge - 95 St
88,BK07,BK07 Sunset Park-Windsor Terrace (CD 7 Approximation),93916.413345,105549400.087,Brooklyn,241.0,prospect_av,1649384.0,prospect_av,30.0,30.0,30,R34,BMT,4th Av,prospect_av,Bk,R,Subway,40.665414,-73.992872,Manhattan,Bay Ridge - 95 St
89,BK07,BK07 Sunset Park-Windsor Terrace (CD 7 Approximation),93916.413345,105549400.087,Brooklyn,202.0,ft_hamilton_pky,2149064.0,fort_hamilton_pkwy,243.0,242.0,242,F26,IND,6th Av - Culver,fort_hamilton_pkwy,Bk,F G,Subway,40.650782,-73.975776,Manhattan - Queens,Church Av - Coney Island
90,BK07,BK07 Sunset Park-Windsor Terrace (CD 7 Approximation),93916.413345,105549400.087,Brooklyn,389.0,15_st_prospect,742082.0,15_st_prospect_park,242.0,241.0,241,F25,IND,6th Av - Culver,15_st_prospect_park,Bk,F G,Subway,40.660365,-73.979493,Manhattan - Queens,Church Av - Coney Island
91,BK07,BK07 Sunset Park-Windsor Terrace (CD 7 Approximation),93916.413345,105549400.087,Brooklyn,35.0,59_st,9299899.0,59_st,35.0,35.0,35,R41,BMT,4th Av,59_st,Bk,N R,Subway,40.641362,-74.017881,Manhattan,Coney Island - Bay Ridge
92,BK07,BK07 Sunset Park-Windsor Terrace (CD 7 Approximation),93916.413345,105549400.087,Brooklyn,235.0,53_st,1697340.0,53_st,34.0,34.0,34,R40,BMT,4th Av,53_st,Bk,R,Subway,40.645069,-74.014034,Manhattan,Bay Ridge - 95 St
93,BK07,BK07 Sunset Park-Windsor Terrace (CD 7 Approximation),93916.413345,105549400.087,Brooklyn,323.0,45_st,1104899.0,45_st,33.0,33.0,33,R39,BMT,4th Av,45_st,Bk,R,Subway,40.648939,-74.010006,Manhattan,Bay Ridge - 95 St
94,BK07,BK07 Sunset Park-Windsor Terrace (CD 7 Approximation),93916.413345,105549400.087,Brooklyn,194.0,36_st,2219201.0,36_st,32.0,32.0,32,R36,BMT,4th Av,36_st,Bk,D N R,Subway,40.655144,-74.003549,Manhattan,Coney Island - Bay Ridge
95,BK08,BK08 Crown Heights (North) (CD 8 Approximation),38332.6161486,46944443.5159,Brooklyn,411.0,park_place,637696.0,park_pl,140.0,141.0,141,S03,BMT,Franklin Shuttle,park_pl,Bk,S,Open Cut,40.674772,-73.957624,Franklin Av,Prospect Park
96,BK08,BK08 Crown Heights (North) (CD 8 Approximation),38332.6161486,46944443.5159,Brooklyn,75.0,7_av,5070083.0,7_av,41.0,41.0,41,D25,BMT,Broadway - Brighton,7_av,Bk,B Q,Subway,40.67705,-73.972367,Manhattan,Brighton Beach & Coney Island
97,BK09,BK09 Crown Heights (South) (CD 9 Approximation),32243.1013516,44093398.764,Brooklyn,352.0,parkside_av,923982.0,parkside_av,43.0,43.0,43,D27,BMT,Broadway - Brighton,parkside_av,Bk,B Q,Open Cut,40.655292,-73.961495,Manhattan,Brighton Beach & Coney Island
98,BK09,BK09 Crown Heights (South) (CD 9 Approximation),32243.1013516,44093398.764,Brooklyn,275.0,prospect_park,1400144.0,prospect_park,42.0,42.0,42,D26,BMT,Broadway - Brighton,prospect_park,Bk,B Q,Open Cut,40.661614,-73.962246,Manhattan & Franklin Av,Brighton Beach & Coney Island
99,BK09,BK09 Crown Heights (South) (CD 9 Approximation),32243.1013516,44093398.764,Brooklyn,382.0,sterling_st,760309.0,sterling_st,355.0,354.0,354,242,IRT,Nostrand,sterling_st,Bk,2 5,Subway,40.662742,-73.95085,Manhattan,Flatbush
100,BK09,BK09 Crown Heights (South) (CD 9 Approximation),32243.1013516,44093398.764,Brooklyn,477.0,botanic_garden,358674.0,botanic_garden,141.0,142.0,626,S04,BMT,Franklin Shuttle,botanic_garden,Bk,S,Open Cut,40.670343,-73.959245,Franklin Av,Prospect Park
101,BK09,BK09 Crown Heights (South) (CD 9 Approximation),32243.1013516,44093398.764,Brooklyn,339.0,twenty_third_st,1025495.0,winthrop_st,356.0,355.0,355,243,IRT,Nostrand,winthrop_st,Bk,2 5,Subway,40.656652,-73.9502,Manhattan,Flatbush
102,BK09,BK09 Crown Heights (South) (CD 9 Approximation),32243.1013516,44093398.764,Brooklyn,409.0,winthrop_st,639343.0,winthrop_st,356.0,355.0,355,243,IRT,Nostrand,winthrop_st,Bk,2 5,Subway,40.656652,-73.9502,Manhattan,Flatbush
103,BK09,BK09 Crown Heights (South) (CD 9 Approximation),32243.1013516,44093398.764,Brooklyn,403.0,president_st,675257.0,president_st,354.0,353.0,353,241,IRT,Nostrand,president_st,Bk,2 5,Subway,40.667883,-73.950683,Manhattan,Flatbush
104,BK09,BK09 Crown Heights (South) (CD 9 Approximation),32243.1013516,44093398.764,Brooklyn,152.0,franklin_av,2587016.0,franklin_av,343.0,342.0,626,239,IRT,Eastern Pky,franklin_av,Bk,2 3 4 5,Subway,40.670682,-73.958131,Manhattan,Flatbush - Utica - New Lots
105,BK09,BK09 Crown Heights (South) (CD 9 Approximation),32243.1013516,44093398.764,Brooklyn,113.0,crown_hts_utica,3687178.0,crown_hts_utica_av,346.0,345.0,345,250,IRT,Eastern Pky,crown_hts_utica_av,Bk,3 4,Subway,40.668897,-73.932942,Manhattan,New Lots
106,BK09,BK09 Crown Heights (South) (CD 9 Approximation),32243.1013516,44093398.764,Brooklyn,390.0,kingston_av,741738.0,kingston_av,345.0,344.0,344,249,IRT,Eastern Pky,kingston_av,Bk,3,Subway,40.669399,-73.942161,Manhattan,New Lots
107,BK09,BK09 Crown Heights (South) (CD 9 Approximation),32243.1013516,44093398.764,Brooklyn,137.0,nostrand_av,3115645.0,nostrand_av,344.0,343.0,343,248,IRT,Eastern Pky,nostrand_av,Bk,3,Subway,40.669847,-73.950466,Manhattan,New Lots
108,BK10,BK10 Bay Ridge-Dyker Heights (CD 10 Approximation),47856.9812555,109208309.779,Brooklyn,399.0,bay_ridge_95_st,695527.0,bay_ridge_95_st,39.0,39.0,39,R45,BMT,4th Av,bay_ridge_95_st,Bk,R,Subway,40.616622,-74.030876,Manhattan,
109,BK10,BK10 Bay Ridge-Dyker Heights (CD 10 Approximation),47856.9812555,109208309.779,Brooklyn,15.0,86_st,11659593.0,86_st,38.0,38.0,38,R44,BMT,4th Av,86_st,Bk,R,Subway,40.622687,-74.028398,Manhattan,95 St
110,BK10,BK10 Bay Ridge-Dyker Heights (CD 10 Approximation),47856.9812555,109208309.779,Brooklyn,93.0,77_st,4484397.0,77_st,37.0,37.0,37,R43,BMT,4th Av,77_st,Bk,R,Subway,40.629742,-74.02551,Manhattan,95 St
111,BK10,BK10 Bay Ridge-Dyker Heights (CD 10 Approximation),47856.9812555,109208309.779,Brooklyn,343.0,bay_ridge_av,996746.0,bay_ridge_av,36.0,36.0,36,R42,BMT,4th Av,bay_ridge_av,Bk,R,Subway,40.634967,-74.023377,Manhattan,95 St
112,BK11,BK11 Bensonhurst-Bath Beach (CD 11 Approximation),48973.2529494,103013809.958,Brooklyn,292.0,20_av,1295204.0,20_av,67.0,67.0,67,B20,BMT,West End,20_av,Bk,D,Elevated,40.604556,-73.998168,Manhattan,Coney Island
113,BK11,BK11 Bensonhurst-Bath Beach (CD 11 Approximation),48973.2529494,103013809.958,Brooklyn,214.0,18_av,1955629.0,18_av,66.0,66.0,66,B19,BMT,West End,18_av,Bk,D,Elevated,40.607954,-74.001736,Manhattan,Coney Island
114,BK11,BK11 Bensonhurst-Bath Beach (CD 11 Approximation),48973.2529494,103013809.958,Brooklyn,145.0,79_st,2723291.0,79_st,65.0,65.0,65,B18,BMT,West End,79_st,Bk,D,Elevated,40.613501,-74.00061,Manhattan,Coney Island
115,BK11,BK11 Bensonhurst-Bath Beach (CD 11 Approximation),48973.2529494,103013809.958,Brooklyn,429.0,71_st,588206.0,71_st,64.0,64.0,64,B17,BMT,West End,71_st,Bk,D,Elevated,40.619589,-73.998864,Manhattan,Coney Island
116,BK11,BK11 Bensonhurst-Bath Beach (CD 11 Approximation),48973.2529494,103013809.958,Brooklyn,457.0,25_av,450552.0,25_av,69.0,69.0,69,B22,BMT,West End,25_av,Bk,D,Elevated,40.597704,-73.986829,Manhattan,Coney Island
117,BK11,BK11 Bensonhurst-Bath Beach (CD 11 Approximation),48973.2529494,103013809.958,Brooklyn,154.0,bay_pkwy,2581179.0,bay_pkwy,68.0,68.0,68,B21,BMT,West End,bay_pkwy,Bk,D,Elevated,40.601875,-73.993728,Manhattan,Coney Island
118,BK11,BK11 Bensonhurst-Bath Beach (CD 11 Approximation),48973.2529494,103013809.958,Brooklyn,215.0,18_av,1955629.0,18_av,74.0,74.0,74,N05,BMT,Sea Beach,18_av,Bk,N,Open Cut,40.620671,-73.990414,Manhattan,Coney Island
119,BK11,BK11 Bensonhurst-Bath Beach (CD 11 Approximation),48973.2529494,103013809.958,Brooklyn,362.0,new_utrecht_av,881580.0,new_utrecht_av,73.0,73.0,615,N04,BMT,Sea Beach,new_utrecht_av,Bk,N,Open Cut,40.624842,-73.996353,Manhattan,Coney Island
120,BK11,BK11 Bensonhurst-Bath Beach (CD 11 Approximation),48973.2529494,103013809.958,Brooklyn,293.0,20_av,1295204.0,20_av,75.0,75.0,75,N06,BMT,Sea Beach,20_av,Bk,N,Open Cut,40.61741,-73.985026,Manhattan,Coney Island
121,BK11,BK11 Bensonhurst-Bath Beach (CD 11 Approximation),48973.2529494,103013809.958,Brooklyn,239.0,avenue_u,1665264.0,avenue_u,78.0,78.0,78,N09,BMT,Sea Beach,avenue_u,Bk,N,Open Cut,40.597473,-73.979137,Manhattan,Coney Island
122,BK11,BK11 Bensonhurst-Bath Beach (CD 11 Approximation),48973.2529494,103013809.958,Brooklyn,83.0,kings_hwy,4646226.0,kings_hwy,77.0,77.0,77,N08,BMT,Sea Beach,kings_hwy,Bk,N,Open Cut,40.603923,-73.980353,Manhattan,Coney Island
123,BK11,BK11 Bensonhurst-Bath Beach (CD 11 Approximation),48973.2529494,103013809.958,Brooklyn,155.0,bay_pkwy,2581179.0,bay_pkwy,76.0,76.0,76,N07,BMT,Sea Beach,bay_pkwy,Bk,N,Open Cut,40.611815,-73.981848,Manhattan,Coney Island
124,BK12,BK12 Borough Park-Kensington (CD 12 Approximation),54264.1593755,101058172.278,Brooklyn,201.0,ft_hamilton_pky,2149064.0,fort_hamilton_pkwy,72.0,72.0,72,N03,BMT,Sea Beach,fort_hamilton_pkwy,Bk,N,Open Cut,40.631386,-74.005351,Manhattan,Coney Island
125,BK12,BK12 Borough Park-Kensington (CD 12 Approximation),54264.1593755,101058172.278,Brooklyn,494.0,55_st,267331.0,55_st,62.0,62.0,62,B15,BMT,West End,55_st,Bk,D,Elevated,40.631435,-73.995476,Manhattan,Coney Island
126,BK12,BK12 Borough Park-Kensington (CD 12 Approximation),54264.1593755,101058172.278,Brooklyn,65.0,50_st,6162458.0,50_st,61.0,61.0,61,B14,BMT,West End,50_st,Bk,D,Elevated,40.63626,-73.994791,Manhattan,Coney Island
127,BK12,BK12 Borough Park-Kensington (CD 12 Approximation),54264.1593755,101058172.278,Brooklyn,200.0,ft_hamilton_pky,2149064.0,fort_hamilton_pkwy,60.0,60.0,60,B13,BMT,West End,fort_hamilton_pkwy,Bk,D,Elevated,40.640914,-73.994304,Manhattan,Coney Island
128,BK12,BK12 Borough Park-Kensington (CD 12 Approximation),54264.1593755,101058172.278,Brooklyn,329.0,9_av,1075160.0,9_av,59.0,59.0,59,B12,BMT,West End,9_av,Bk,D,Open Cut,40.646292,-73.994324,Manhattan,Coney Island
129,BK12,BK12 Borough Park-Kensington (CD 12 Approximation),54264.1593755,101058172.278,Brooklyn,492.0,avenue_n,296067.0,avenue_n,249.0,248.0,248,F33,IND,6th Av - Culver,avenue_n,Bk,F,Elevated,40.61514,-73.974197,Manhattan,Coney Island
130,BK12,BK12 Borough Park-Kensington (CD 12 Approximation),54264.1593755,101058172.278,Brooklyn,156.0,bay_pkwy,2581179.0,bay_pkwy,248.0,247.0,247,F32,IND,6th Av - Culver,bay_pkwy,Bk,F,Elevated,40.620769,-73.975264,Manhattan,Coney Island
131,BK12,BK12 Borough Park-Kensington (CD 12 Approximation),54264.1593755,101058172.278,Brooklyn,502.0,avenue_i,179939.0,avenue_i,247.0,246.0,246,F31,IND,6th Av - Culver,avenue_i,Bk,F,Elevated,40.625322,-73.976127,Manhattan,Coney Island
132,BK12,BK12 Borough Park-Kensington (CD 12 Approximation),54264.1593755,101058172.278,Brooklyn,455.0,ditmas_av,473736.0,ditmas_av,245.0,244.0,244,F29,IND,6th Av - Culver,ditmas_av,Bk,F,Elevated,40.636119,-73.978172,Manhattan,Coney Island
133,BK12,BK12 Borough Park-Kensington (CD 12 Approximation),54264.1593755,101058172.278,Brooklyn,73.0,church_av,5095905.0,church_av,244.0,243.0,243,F27,IND,6th Av - Culver,church_av,Bk,F,Subway,40.644041,-73.979678,Manhattan,Coney Island
134,BK12,BK12 Borough Park-Kensington (CD 12 Approximation),54264.1593755,101058172.278,Brooklyn,495.0,avenue_p,265072.0,avenue_p,250.0,249.0,249,F34,IND,6th Av - Culver,avenue_p,Bk,F,Elevated,40.608944,-73.973022,Manhattan,Coney Island
135,BK13,BK13 Coney Island-Brighton Beach (CD 13 Approximation),73552.0828835,91136329.9256,Brooklyn,471.0,w_8_st_aquarium,396030.0,w_8_st_ny_aquarium,57.0,57.0,57,D42,BMT,Broadway - Brighton,w_8_st_ny_aquarium,Bk,F Q,Elevated,40.576127,-73.975939,Manhattan,Stillwell Av
136,BK13,BK13 Coney Island-Brighton Beach (CD 13 Approximation),73552.0828835,91136329.9256,Brooklyn,181.0,coney_is_stillw,2320277.0,coney_island_stillwell_av,58.0,58.0,58,D43,BMT,Sea Beach / West End / Culver / Brighton,coney_island_stillwell_av,Bk,D F N Q,Viaduct,40.577422,-73.981233,Manhattan,
137,BK13,BK13 Coney Island-Brighton Beach (CD 13 Approximation),73552.0828835,91136329.9256,Brooklyn,503.0,neptune_av,174719.0,neptune_av,254.0,253.0,253,F39,IND,6th Av - Culver,neptune_av,Bk,F,Elevated,40.581011,-73.974574,Manhattan,Stillwell Av
138,BK13,BK13 Coney Island-Brighton Beach (CD 13 Approximation),73552.0828835,91136329.9256,Brooklyn,479.0,bay_50_st,348442.0,bay_50_st,70.0,70.0,70,B23,BMT,West End,bay_50_st,Bk,D,Elevated,40.588841,-73.983765,Manhattan,Coney Island
139,BK13,BK13 Coney Island-Brighton Beach (CD 13 Approximation),73552.0828835,91136329.9256,Brooklyn,475.0,avenue_x,369392.0,avenue_x,253.0,252.0,252,F38,IND,6th Av - Culver,avenue_x,Bk,F,Elevated,40.58962,-73.97425,Manhattan,Coney Island
140,BK13,BK13 Coney Island-Brighton Beach (CD 13 Approximation),73552.0828835,91136329.9256,Brooklyn,470.0,ocean_pkwy,397770.0,ocean_pkwy,56.0,56.0,56,D41,BMT,Broadway - Brighton,ocean_pkwy,Bk,Q,Elevated,40.576312,-73.968501,Manhattan,Stillwell Av
141,BK13,BK13 Coney Island-Brighton Beach (CD 13 Approximation),73552.0828835,91136329.9256,Brooklyn,254.0,brighton_beach,1522189.0,brighton_beach,55.0,55.0,55,D40,BMT,Broadway - Brighton,brighton_beach,Bk,B Q,Elevated,40.577621,-73.961376,Manhattan,Coney Island
142,BK13,BK13 Coney Island-Brighton Beach (CD 13 Approximation),73552.0828835,91136329.9256,Brooklyn,513.0,orchard_beach,402.0,brighton_beach,55.0,55.0,55,D40,BMT,Broadway - Brighton,brighton_beach,Bk,B Q,Elevated,40.577621,-73.961376,Manhattan,Coney Island
143,BK14,BK14 Flatbush-Midwood (CD 14 Approximation),53399.7521084,79146569.5247,Brooklyn,216.0,18_av,1955629.0,18_av,246.0,245.0,245,F30,IND,6th Av - Culver,18_av,Bk,F,Elevated,40.629755,-73.976971,Manhattan,Coney Island
144,BK14,BK14 Flatbush-Midwood (CD 14 Approximation),53399.7521084,79146569.5247,Brooklyn,388.0,avenue_m,746197.0,avenue_m,50.0,50.0,50,D34,BMT,Broadway - Brighton,avenue_m,Bk,B Q,Open Cut,40.617618,-73.959399,Manhattan,Brighton Beach & Coney Island
145,BK14,BK14 Flatbush-Midwood (CD 14 Approximation),53399.7521084,79146569.5247,Brooklyn,378.0,avenue_j,779061.0,avenue_j,49.0,49.0,49,D33,BMT,Broadway - Brighton,avenue_j,Bk,B Q,Open Cut,40.625039,-73.960803,Manhattan,Brighton Beach & Coney Island
146,BK14,BK14 Flatbush-Midwood (CD 14 Approximation),53399.7521084,79146569.5247,Brooklyn,434.0,avenue_h,562366.0,avenue_h,48.0,48.0,48,D32,BMT,Broadway - Brighton,avenue_h,Bk,B Q,Open Cut,40.62927,-73.961639,Manhattan,Brighton Beach & Coney Island
147,BK14,BK14 Flatbush-Midwood (CD 14 Approximation),53399.7521084,79146569.5247,Brooklyn,236.0,newkirk_plaza,1683018.0,newkirk_plaza,47.0,47.0,47,D31,BMT,Broadway - Brighton,newkirk_plaza,Bk,B Q,Open Cut,40.635082,-73.962793,Manhattan,Brighton Beach & Coney Island
148,BK14,BK14 Flatbush-Midwood (CD 14 Approximation),53399.7521084,79146569.5247,Brooklyn,404.0,cortelyou_rd,670284.0,cortelyou_rd,46.0,46.0,46,D30,BMT,Broadway - Brighton,cortelyou_rd,Bk,B Q,Open Cut,40.640927,-73.963891,Manhattan,Brighton Beach & Coney Island
149,BK14,BK14 Flatbush-Midwood (CD 14 Approximation),53399.7521084,79146569.5247,Brooklyn,414.0,beverley_road,633268.0,beverley_rd,45.0,45.0,45,D29,BMT,Broadway - Brighton,beverley_rd,Bk,B Q,Open Cut,40.644031,-73.964492,Manhattan,Brighton Beach & Coney Island
150,BK14,BK14 Flatbush-Midwood (CD 14 Approximation),53399.7521084,79146569.5247,Brooklyn,72.0,church_av,5095905.0,church_av,44.0,44.0,44,D28,BMT,Broadway - Brighton,church_av,Bk,B Q,Open Cut,40.650527,-73.962982,Manhattan,Brighton Beach & Coney Island
151,BK14,BK14 Flatbush-Midwood (CD 14 Approximation),53399.7521084,79146569.5247,Brooklyn,161.0,flatbush_av_b.c,2531011.0,flatbush_av_brooklyn_college,360.0,359.0,359,247,IRT,Nostrand,flatbush_av_brooklyn_college,Bk,2 5,Subway,40.632836,-73.947642,Manhattan,
152,BK15,BK15 Sheepshead Bay-Gravesend (East) (CD 15 Approximation),114180.793459,125623779.902,Brooklyn,16.0,86_st,11659593.0,86_st,79.0,79.0,79,N10,BMT,Sea Beach,86_st,Bk,N,Open Cut,40.592721,-73.97823,Manhattan,Coney Island
153,BK15,BK15 Sheepshead Bay-Gravesend (East) (CD 15 Approximation),114180.793459,125623779.902,Brooklyn,240.0,avenue_u,1665264.0,avenue_u,252.0,251.0,251,F36,IND,6th Av - Culver,avenue_u,Bk,F,Elevated,40.596063,-73.973357,Manhattan,Coney Island
154,BK15,BK15 Sheepshead Bay-Gravesend (East) (CD 15 Approximation),114180.793459,125623779.902,Brooklyn,210.0,sheepshead_bay,2043950.0,sheepshead_bay,54.0,54.0,54,D39,BMT,Broadway - Brighton,sheepshead_bay,Bk,B Q,Open Cut,40.586896,-73.954155,Manhattan,Brighton Beach & Coney Island
155,BK15,BK15 Sheepshead Bay-Gravesend (East) (CD 15 Approximation),114180.793459,125623779.902,Brooklyn,464.0,neck_rd,424700.0,neck_rd,53.0,53.0,53,D38,BMT,Broadway - Brighton,neck_rd,Bk,B Q,Open Cut,40.595246,-73.955161,Manhattan,Brighton Beach & Coney Island
156,BK15,BK15 Sheepshead Bay-Gravesend (East) (CD 15 Approximation),114180.793459,125623779.902,Brooklyn,238.0,avenue_u,1665264.0,avenue_u,52.0,52.0,52,D37,BMT,Broadway - Brighton,avenue_u,Bk,B Q,Open Cut,40.5993,-73.955929,Manhattan,Brighton Beach & Coney Island
157,BK15,BK15 Sheepshead Bay-Gravesend (East) (CD 15 Approximation),114180.793459,125623779.902,Brooklyn,84.0,kings_hwy,4646226.0,kings_hwy,251.0,250.0,250,F35,IND,6th Av - Culver,kings_hwy,Bk,F,Elevated,40.603217,-73.972361,Manhattan,Coney Island
158,BK15,BK15 Sheepshead Bay-Gravesend (East) (CD 15 Approximation),114180.793459,125623779.902,Brooklyn,82.0,kings_hwy,4646226.0,kings_hwy,51.0,51.0,51,D35,BMT,Broadway - Brighton,kings_hwy,Bk,B Q,Open Cut,40.60867,-73.957734,Manhattan,Brighton Beach & Coney Island
159,BK16,BK16 Ocean Hill-Brownsville (CD 16 Approximation),35824.0151624,50875436.3784,Brooklyn,478.0,chauncey_st,351428.0,chauncey_st,93.0,93.0,93,J28,BMT,Jamaica,chauncey_st,Bk,J Z,Elevated,40.682893,-73.910456,Jamaica,Manhattan
160,BK16,BK16 Ocean Hill-Brownsville (CD 16 Approximation),35824.0151624,50875436.3784,Brooklyn,333.0,new_lots_av,1036931.0,new_lots_av,136.0,136.0,136,L27,BMT,Canarsie,new_lots_av,Bk,L,Elevated,40.658733,-73.899232,Manhattan,Canarsie - Rockaway Parkway
161,BK16,BK16 Ocean Hill-Brownsville (CD 16 Approximation),35824.0151624,50875436.3784,Brooklyn,393.0,new_lots,714837.0,new_lots_av,136.0,136.0,136,L27,BMT,Canarsie,new_lots_av,Bk,L,Elevated,40.658733,-73.899232,Manhattan,Canarsie - Rockaway Parkway
162,BK16,BK16 Ocean Hill-Brownsville (CD 16 Approximation),35824.0151624,50875436.3784,Brooklyn,445.0,junius_st,520539.0,junius_st,350.0,349.0,349,254,IRT,Eastern Pky,junius_st,Bk,3,Elevated,40.663515,-73.902447,Manhattan,New Lots
163,BK16,BK16 Ocean Hill-Brownsville (CD 16 Approximation),35824.0151624,50875436.3784,Brooklyn,454.0,livonia_av,477958.0,livonia_av,135.0,135.0,135,L26,BMT,Canarsie,livonia_av,Bk,L,Elevated,40.664038,-73.900571,Manhattan,Canarsie - Rockaway Parkway
164,BK16,BK16 Ocean Hill-Brownsville (CD 16 Approximation),35824.0151624,50875436.3784,Brooklyn,364.0,saratoga_av,874113.0,saratoga_av,348.0,347.0,347,252,IRT,Eastern Pky,saratoga_av,Bk,3,Elevated,40.661453,-73.916327,Manhattan,New Lots
165,BK16,BK16 Ocean Hill-Brownsville (CD 16 Approximation),35824.0151624,50875436.3784,Brooklyn,505.0,rockaway_park_b,151887.0,rockaway_av,349.0,348.0,348,253,IRT,Eastern Pky,rockaway_av,Bk,3,Elevated,40.662549,-73.908946,Manhattan,New Lots
166,BK16,BK16 Ocean Hill-Brownsville (CD 16 Approximation),35824.0151624,50875436.3784,Brooklyn,312.0,lackawanna,1206514.0,rockaway_av,349.0,348.0,348,253,IRT,Eastern Pky,rockaway_av,Bk,3,Elevated,40.662549,-73.908946,Manhattan,New Lots
167,BK16,BK16 Ocean Hill-Brownsville (CD 16 Approximation),35824.0151624,50875436.3784,Brooklyn,248.0,rockaway_av,1604275.0,rockaway_av,349.0,348.0,348,253,IRT,Eastern Pky,rockaway_av,Bk,3,Elevated,40.662549,-73.908946,Manhattan,New Lots
168,BK16,BK16 Ocean Hill-Brownsville (CD 16 Approximation),35824.0151624,50875436.3784,Brooklyn,307.0,sutter_av_rutld,1220905.0,sutter_av_rutland_rd,347.0,346.0,346,251,IRT,Eastern Pky,sutter_av_rutland_rd,Bk,3,Elevated,40.664717,-73.92261,Manhattan,New Lots
169,BK16,BK16 Ocean Hill-Brownsville (CD 16 Approximation),35824.0151624,50875436.3784,Brooklyn,282.0,broadway_jct,1376938.0,broadway_jct,185.0,184.0,621,A51,IND,8th Av - Fulton St,broadway_jct,Bk,A C,Subway,40.678334,-73.905316,Manhattan,Euclid - Lefferts - Rockaways
170,BK16,BK16 Ocean Hill-Brownsville (CD 16 Approximation),35824.0151624,50875436.3784,Brooklyn,504.0,rockaway_park_b,151887.0,rockaway_av,184.0,183.0,183,A50,IND,8th Av - Fulton St,rockaway_av,Bk,C,Subway,40.67834,-73.911946,Manhattan,Euclid Av
171,BK16,BK16 Ocean Hill-Brownsville (CD 16 Approximation),35824.0151624,50875436.3784,Brooklyn,247.0,rockaway_av,1604275.0,rockaway_av,184.0,183.0,183,A50,IND,8th Av - Fulton St,rockaway_av,Bk,C,Subway,40.67834,-73.911946,Manhattan,Euclid Av
172,BK16,BK16 Ocean Hill-Brownsville (CD 16 Approximation),35824.0151624,50875436.3784,Brooklyn,311.0,lackawanna,1206514.0,rockaway_av,184.0,183.0,183,A50,IND,8th Av - Fulton St,rockaway_av,Bk,C,Subway,40.67834,-73.911946,Manhattan,Euclid Av
173,BK16,BK16 Ocean Hill-Brownsville (CD 16 Approximation),35824.0151624,50875436.3784,Brooklyn,405.0,ralph_av,666930.0,ralph_av,183.0,182.0,182,A49,IND,8th Av - Fulton St,ralph_av,Bk,C,Subway,40.678822,-73.920786,Manhattan,Euclid Av
174,BK16,BK16 Ocean Hill-Brownsville (CD 16 Approximation),35824.0151624,50875436.3784,Brooklyn,442.0,sutter_av,535442.0,sutter_av,134.0,134.0,134,L25,BMT,Canarsie,sutter_av,Bk,L,Elevated,40.669367,-73.901975,Manhattan,Canarsie - Rockaway Parkway
175,BK17,BK17 East Flatbush (CD 17 Approximation),50561.3220473,93765246.7092,Brooklyn,331.0,newkirk_av,1057644.0,newkirk_av,359.0,358.0,358,246,IRT,Nostrand,newkirk_av,Bk,2 5,Subway,40.639967,-73.948411,Manhattan,Flatbush
176,BK17,BK17 East Flatbush (CD 17 Approximation),50561.3220473,93765246.7092,Brooklyn,273.0,newark_hm_he,1424476.0,newkirk_av,359.0,358.0,358,246,IRT,Nostrand,newkirk_av,Bk,2 5,Subway,40.639967,-73.948411,Manhattan,Flatbush
177,BK17,BK17 East Flatbush (CD 17 Approximation),50561.3220473,93765246.7092,Brooklyn,461.0,newark_c,433518.0,newkirk_av,359.0,358.0,358,246,IRT,Nostrand,newkirk_av,Bk,2 5,Subway,40.639967,-73.948411,Manhattan,Flatbush
178,BK17,BK17 East Flatbush (CD 17 Approximation),50561.3220473,93765246.7092,Brooklyn,319.0,newark_bm_bw,1120121.0,newkirk_av,359.0,358.0,358,246,IRT,Nostrand,newkirk_av,Bk,2 5,Subway,40.639967,-73.948411,Manhattan,Flatbush
179,BK17,BK17 East Flatbush (CD 17 Approximation),50561.3220473,93765246.7092,Brooklyn,463.0,beverly_rd,426887.0,beverly_rd,358.0,357.0,357,245,IRT,Nostrand,beverly_rd,Bk,2 5,Subway,40.645098,-73.948959,Manhattan,Flatbush
180,BK17,BK17 East Flatbush (CD 17 Approximation),50561.3220473,93765246.7092,Brooklyn,74.0,church_av,5095905.0,church_av,357.0,356.0,356,244,IRT,Nostrand,church_av,Bk,2 5,Subway,40.650843,-73.949575,Manhattan,Flatbush
181,BK18,BK18 Canarsie-Flatlands (CD 18 Approximation),214750.493754,249241737.911,Brooklyn,408.0,canarsie_rockaw,641582.0,canarsie_rockaway_pkwy,138.0,138.0,138,L29,BMT,Canarsie,canarsie_rockaway_pkwy,Bk,L,At Grade,40.646654,-73.90185,Manhattan,
182,BK55,BK55 Prospect Park (JIA 55 Approximation),24199.843262,27323776.6547,Brooklyn,376.0,eastn_pkwy_musm,791378.0,eastern_pkwy_brooklyn_museum,342.0,341.0,341,238,IRT,Eastern Pky,eastern_pkwy_brooklyn_museum,Bk,2 3,Subway,40.671987,-73.964375,Manhattan,Flatbush - New Lots
184,BX01,BX01 Melrose-Mott Haven-Port Morris (CD 1 Approximation),32293.960342,58247049.0264,Bronx,447.0,cypress_av,512633.0,cypress_av,376.0,375.0,375,617,IRT,Pelham,cypress_av,Bx,6,Subway,40.805368,-73.914042,Pelham Bay Park,Manhattan
185,BX01,BX01 Melrose-Mott Haven-Port Morris (CD 1 Approximation),32293.960342,58247049.0264,Bronx,318.0,brook_av,1129019.0,brook_av,377.0,376.0,376,618,IRT,Pelham,brook_av,Bx,6,Subway,40.807566,-73.91924,Pelham Bay Park,Manhattan
186,BX01,BX01 Melrose-Mott Haven-Port Morris (CD 1 Approximation),32293.960342,58247049.0264,Bronx,493.0,e_143_st_mary's,270520.0,e_143_st_st_mary's_st,375.0,374.0,374,616,IRT,Pelham,e_143_st_st_mary's_st,Bx,6,Subway,40.808719,-73.907657,Pelham Bay Park,Manhattan
187,BX01,BX01 Melrose-Mott Haven-Port Morris (CD 1 Approximation),32293.960342,58247049.0264,Bronx,299.0,3_av_138_st,1276835.0,3_av_138_st,378.0,377.0,377,619,IRT,Pelham,3_av_138_st,Bx,6,Subway,40.810476,-73.926138,Pelham Bay Park,Manhattan
188,BX01,BX01 Melrose-Mott Haven-Port Morris (CD 1 Approximation),32293.960342,58247049.0264,Bronx,413.0,138_grand_conc,635390.0,138_st_grand_concourse,392.0,391.0,391,416,IRT,Jerome Av,138_st_grand_concourse,Bx,4 5,Subway,40.813224,-73.929849,Woodlawn - Eastchester Dyre Av,Manhattan
189,BX01,BX01 Melrose-Mott Haven-Port Morris (CD 1 Approximation),32293.960342,58247049.0264,Bronx,149.0,3_av_149_st,2602592.0,3_av_149_st,435.0,434.0,434,221,IRT,Lenox - White Plains Rd,3_av_149_st,Bx,2 5,Subway,40.816109,-73.917757,Wakefield - Eastchester,Manhattan
190,BX01,BX01 Melrose-Mott Haven-Port Morris (CD 1 Approximation),32293.960342,58247049.0264,Bronx,444.0,jackson_av,523097.0,jackson_av,434.0,433.0,433,220,IRT,Lenox - White Plains Rd,jackson_av,Bx,2 5,Elevated,40.81649,-73.907807,Wakefield - Eastchester,Manhattan
191,BX01,BX01 Melrose-Mott Haven-Port Morris (CD 1 Approximation),32293.960342,58247049.0264,Bronx,278.0,149_grand_conc,1382275.0,149_st_grand_concourse,391.0,390.0,603,415,IRT,Jerome Av,149_st_grand_concourse,Bx,4,Subway,40.818375,-73.927351,Woodlawn,Manhattan
192,BX01,BX01 Melrose-Mott Haven-Port Morris (CD 1 Approximation),32293.960342,58247049.0264,Bronx,279.0,149_grand_conc,1382275.0,149_st_grand_concourse,436.0,435.0,603,222,IRT,Lenox - White Plains Rd,149_st_grand_concourse,Bx,2 5,Subway,40.81841,-73.926718,Wakefield - Eastchester,Manhattan
193,BX01,BX01 Melrose-Mott Haven-Port Morris (CD 1 Approximation),32293.960342,58247049.0264,Bronx,242.0,prospect_av,1649384.0,prospect_av,433.0,432.0,432,219,IRT,Lenox - White Plains Rd,prospect_av,Bx,2 5,Elevated,40.819585,-73.90177,Wakefield - Eastchester,Manhattan
194,BX02,BX02 Longwood-Hunts Point (CD 2 Approximation),51339.7779872,61354341.4902,Bronx,415.0,longwood_av,632022.0,longwood_av,373.0,372.0,372,614,IRT,Pelham,longwood_av,Bx,6,Subway,40.816104,-73.896435,Pelham Bay Park,Manhattan
195,BX02,BX02 Longwood-Hunts Point (CD 2 Approximation),51339.7779872,61354341.4902,Bronx,348.0,e_149_st,933556.0,e_149_st,374.0,373.0,373,615,IRT,Pelham,e_149_st,Bx,6,Subway,40.812118,-73.904098,Pelham Bay Park,Manhattan
196,BX02,BX02 Longwood-Hunts Point (CD 2 Approximation),51339.7779872,61354341.4902,Bronx,266.0,hunts_point_av,1495818.0,hunts_point_av,372.0,371.0,371,613,IRT,Pelham,hunts_point_av,Bx,6,Subway,40.820948,-73.890549,Pelham Bay Park,Manhattan
197,BX02,BX02 Longwood-Hunts Point (CD 2 Approximation),51339.7779872,61354341.4902,Bronx,420.0,intervale_av,622850.0,intervale_av,432.0,431.0,431,218,IRT,Lenox - White Plains Rd,intervale_av,Bx,2 5,Elevated,40.822181,-73.896736,Wakefield - Eastchester,Manhattan
198,BX02,BX02 Longwood-Hunts Point (CD 2 Approximation),51339.7779872,61354341.4902,Bronx,353.0,simpson_st,918867.0,simpson_st,431.0,430.0,430,217,IRT,Lenox - White Plains Rd,simpson_st,Bx,2 5,Elevated,40.824073,-73.893064,Wakefield - Eastchester,Manhattan
199,BX02,BX02 Longwood-Hunts Point (CD 2 Approximation),51339.7779872,61354341.4902,Bronx,473.0,whitlock_av,392741.0,whitlock_av,371.0,370.0,370,612,IRT,Pelham,whitlock_av,Bx,6,Elevated,40.826525,-73.886283,Pelham Bay Park,Manhattan
200,BX03,BX03 Morrisania-Crotona Park East (CD 3 Approximation),41045.0355686,46126182.6321,Bronx,368.0,freeman_st,840071.0,freeman_st,430.0,429.0,429,216,IRT,Lenox - White Plains Rd,freeman_st,Bx,2 5,Elevated,40.829993,-73.891865,Wakefield - Eastchester,Manhattan
201,BX03,BX03 Morrisania-Crotona Park East (CD 3 Approximation),41045.0355686,46126182.6321,Bronx,313.0,174_st,1176307.0,174_st,429.0,428.0,428,215,IRT,Lenox - White Plains Rd,174_st,Bx,2 5,Elevated,40.837288,-73.887734,Wakefield - Eastchester,Manhattan
202,BX04,BX04 Highbridge-Concourse (CD 4 Approximation),35802.2913734,57832744.9755,Bronx,127.0,161_yankee_stad,3201707.0,161_st_yankee_stadium,220.0,219.0,604,D11,IND,Concourse,161_st_yankee_stadium,Bx,B D,Subway,40.827905,-73.925651,Bedford Pk Blvd & 205 St,Manhattan
203,BX04,BX04 Highbridge-Concourse (CD 4 Approximation),35802.2913734,57832744.9755,Bronx,128.0,161_yankee_stad,3201707.0,161_st_yankee_stadium,390.0,389.0,604,414,IRT,Jerome Av,161_st_yankee_stadium,Bx,4,Elevated,40.827994,-73.925831,Woodlawn,Manhattan
204,BX04,BX04 Highbridge-Concourse (CD 4 Approximation),35802.2913734,57832744.9755,Bronx,176.0,167_st,2345593.0,167_st,219.0,218.0,218,D10,IND,Concourse,167_st,Bx,B D,Subway,40.833771,-73.91844,Bedford Pk Blvd & 205 St,Manhattan
205,BX04,BX04 Highbridge-Concourse (CD 4 Approximation),35802.2913734,57832744.9755,Bronx,177.0,167_st,2345593.0,167_st,389.0,388.0,388,413,IRT,Jerome Av,167_st,Bx,4,Elevated,40.835537,-73.9214,Woodlawn,Manhattan
206,BX04,BX04 Highbridge-Concourse (CD 4 Approximation),35802.2913734,57832744.9755,Bronx,192.0,170_st,2254885.0,170_st,218.0,217.0,217,D09,IND,Concourse,170_st,Bx,B D,Subway,40.839306,-73.9134,Bedford Pk Blvd & 205 St,Manhattan
207,BX04,BX04 Highbridge-Concourse (CD 4 Approximation),35802.2913734,57832744.9755,Bronx,193.0,170_st,2254885.0,170_st,388.0,387.0,387,412,IRT,Jerome Av,170_st,Bx,4,Elevated,40.840075,-73.917791,Woodlawn,Manhattan
208,BX04,BX04 Highbridge-Concourse (CD 4 Approximation),35802.2913734,57832744.9755,Bronx,380.0,mt_eden_av,770845.0,mt_eden_av,387.0,386.0,386,411,IRT,Jerome Av,mt_eden_av,Bx,4,Elevated,40.844434,-73.914685,Woodlawn,Manhattan
209,BX05,BX05 Morris Heights-Mount Hope (CD 5 Approximation),31502.252258,39702018.9486,Bronx,419.0,174_175_sts,625773.0,174_175_sts,217.0,216.0,216,D08,IND,Concourse,174_175_sts,Bx,B D,Subway,40.8459,-73.910136,Bedford Pk Blvd & 205 St,Manhattan
210,BX05,BX05 Morris Heights-Mount Hope (CD 5 Approximation),31502.252258,39702018.9486,Bronx,369.0,176_st,837999.0,176_st,386.0,385.0,385,410,IRT,Jerome Av,176_st,Bx,4,Elevated,40.84848,-73.911794,Woodlawn,Manhattan
211,BX05,BX05 Morris Heights-Mount Hope (CD 5 Approximation),31502.252258,39702018.9486,Bronx,274.0,tremont_av,1423075.0,tremont_av,216.0,215.0,215,D07,IND,Concourse,tremont_av,Bx,B D,Subway,40.85041,-73.905227,Bedford Pk Blvd & 205 St,Manhattan
212,BX05,BX05 Morris Heights-Mount Hope (CD 5 Approximation),31502.252258,39702018.9486,Bronx,285.0,burnside_av,1344938.0,burnside_av,385.0,384.0,384,409,IRT,Jerome Av,burnside_av,Bx,4,Elevated,40.853453,-73.907684,Woodlawn,Manhattan
213,BX05,BX05 Morris Heights-Mount Hope (CD 5 Approximation),31502.252258,39702018.9486,Bronx,366.0,183_st,849049.0,183_st,384.0,383.0,383,408,IRT,Jerome Av,183_st,Bx,4,Elevated,40.858407,-73.903879,Woodlawn,Manhattan
214,BX05,BX05 Morris Heights-Mount Hope (CD 5 Approximation),31502.252258,39702018.9486,Bronx,458.0,182_183_sts,447317.0,182_183_sts,215.0,214.0,214,D06,IND,Concourse,182_183_sts,Bx,B D,Subway,40.856093,-73.900741,Bedford Pk Blvd & 205 St,Manhattan
215,BX05,BX05 Morris Heights-Mount Hope (CD 5 Approximation),31502.252258,39702018.9486,Bronx,164.0,fordham_rd,2517589.0,fordham_rd,214.0,213.0,213,D05,IND,Concourse,fordham_rd,Bx,B D,Subway,40.861296,-73.897749,Bedford Pk Blvd & 205 St,Manhattan
216,BX06,BX06 Tremont-Belmont-West Farms (CD 6 Approximation),42556.0856029,43925329.7881,Bronx,344.0,west_farms_sq,975613.0,west_farms_sq_e_tremont_av,428.0,427.0,427,214,IRT,Lenox - White Plains Rd,west_farms_sq_e_tremont_av,Bx,2 5,Elevated,40.840295,-73.880049,Wakefield - Eastchester,Manhattan
217,BX06,BX06 Tremont-Belmont-West Farms (CD 6 Approximation),42556.0856029,43925329.7881,Bronx,303.0,e_180_st,1262001.0,e_180_st,427.0,426.0,426,213,IRT,Lenox - White Plains Rd,e_180_st,Bx,2 5,Elevated,40.841894,-73.873488,Wakefield - Eastchester,Manhattan
218,BX06,BX06 Tremont-Belmont-West Farms (CD 6 Approximation),42556.0856029,43925329.7881,Bronx,489.0,bronx_park_east,312840.0,bronx_park_east,426.0,425.0,425,212,IRT,Lenox - White Plains Rd,bronx_park_east,Bx,2 5,Elevated,40.848828,-73.868457,Wakefield - 241 St,Manhattan
219,BX07,BX07 Fordham-Bedford Park-Norwood (CD 7 Approximation),49740.755289,58591938.6369,Bronx,165.0,fordham_rd,2517589.0,fordham_rd,383.0,382.0,382,407,IRT,Jerome Av,fordham_rd,Bx,4,Elevated,40.862803,-73.901034,Woodlawn,Manhattan
220,BX07,BX07 Fordham-Bedford Park-Norwood (CD 7 Approximation),49740.755289,58591938.6369,Bronx,179.0,kingsbridge_rd,2331121.0,kingsbridge_rd,213.0,212.0,212,D04,IND,Concourse,kingsbridge_rd,Bx,B D,Subway,40.866978,-73.893509,Bedford Pk Blvd & 205 St,Manhattan
221,BX07,BX07 Fordham-Bedford Park-Norwood (CD 7 Approximation),49740.755289,58591938.6369,Bronx,180.0,kingsbridge_rd,2331121.0,kingsbridge_rd,382.0,381.0,381,406,IRT,Jerome Av,kingsbridge_rd,Bx,4,Elevated,40.86776,-73.897174,Woodlawn,Manhattan
222,BX07,BX07 Fordham-Bedford Park-Norwood (CD 7 Approximation),49740.755289,58591938.6369,Bronx,226.0,bedford_pk_blvd,1870858.0,bedford_park_blvd,212.0,211.0,211,D03,IND,Concourse,bedford_park_blvd,Bx,B D,Subway,40.873244,-73.887138,Norwood - 205 St,Manhattan
223,BX07,BX07 Fordham-Bedford Park-Norwood (CD 7 Approximation),49740.755289,58591938.6369,Bronx,302.0,norwood_205_st,1272083.0,norwood_205_st,211.0,210.0,210,D01,IND,Concourse,norwood_205_st,Bx,D,Subway,40.874811,-73.878855,,Manhattan
224,BX07,BX07 Fordham-Bedford Park-Norwood (CD 7 Approximation),49740.755289,58591938.6369,Bronx,325.0,mosholu_pkwy,1093710.0,mosholu_pkwy,380.0,379.0,379,402,IRT,Jerome Av,mosholu_pkwy,Bx,4,Elevated,40.87975,-73.884655,Woodlawn,Manhattan
225,BX07,BX07 Fordham-Bedford Park-Norwood (CD 7 Approximation),49740.755289,58591938.6369,Bronx,396.0,woodlawn,712817.0,woodlawn,379.0,378.0,378,401,IRT,Jerome Av,woodlawn,Bx,4,Elevated,40.886037,-73.878751,,Manhattan
226,BX08,BX08 Riverdale-Kingsbridge-Marble Hill (CD 8 Approximation),50395.6455783,86262438.4915,Bronx,448.0,marble_hill_225,509612.0,marble_hill_225_st,297.0,296.0,296,106,IRT,Broadway - 7Av,marble_hill_225_st,M,1,Elevated,40.874561,-73.909831,242 St,Downtown
228,BX08,BX08 Riverdale-Kingsbridge-Marble Hill (CD 8 Approximation),50395.6455783,86262438.4915,Bronx,476.0,238_st,365876.0,238_st,295.0,294.0,294,103,IRT,Broadway - 7Av,238_st,Bx,1,Elevated,40.884667,-73.90087,242 St,Manhattan
229,BX09,BX09 Soundview-Parkchester (CD 9 Approximation),70725.218688,112408418.089,Bronx,160.0,parkchester,2539931.0,parkchester,367.0,366.0,366,608,IRT,Pelham,parkchester,Bx,6,Elevated,40.833226,-73.860816,Pelham Bay Park,Manhattan
230,BX09,BX09 Soundview-Parkchester (CD 9 Approximation),70725.218688,112408418.089,Bronx,305.0,elder_av,1249913.0,elder_av,370.0,369.0,369,611,IRT,Pelham,elder_av,Bx,6,Elevated,40.828584,-73.879159,Pelham Bay Park,Manhattan
231,BX09,BX09 Soundview-Parkchester (CD 9 Approximation),70725.218688,112408418.089,Bronx,315.0,morisn_av_sndvw,1160085.0,morrison_av__sound_view,369.0,368.0,368,610,IRT,Pelham,morrison_av__sound_view,Bx,6,Elevated,40.829521,-73.874516,Pelham Bay Park,Manhattan
232,BX09,BX09 Soundview-Parkchester (CD 9 Approximation),70725.218688,112408418.089,Bronx,375.0,st_lawrence_av,791642.0,st_lawrence_av,368.0,367.0,367,609,IRT,Pelham,st_lawrence_av,Bx,6,Elevated,40.831509,-73.867618,Pelham Bay Park,Manhattan
233,BX10,BX10 Co-op City-Throgs Neck (CD 10 Approximation),257362.320002,172881009.672,Bronx,324.0,castle_hill_av,1096261.0,castle_hill_av,366.0,365.0,365,607,IRT,Pelham,castle_hill_av,Bx,6,Elevated,40.834255,-73.851222,Pelham Bay Park,Manhattan
234,BX10,BX10 Co-op City-Throgs Neck (CD 10 Approximation),257362.320002,172881009.672,Bronx,460.0,zerega_av,438593.0,zerega_av,365.0,364.0,364,606,IRT,Pelham,zerega_av,Bx,6,Elevated,40.836488,-73.847036,Pelham Bay Park,Manhattan
235,BX10,BX10 Co-op City-Throgs Neck (CD 10 Approximation),257362.320002,172881009.672,Bronx,341.0,westchester_sq,1003246.0,westchester_sq_e_tremont_av,364.0,363.0,363,604,IRT,Pelham,westchester_sq_e_tremont_av,Bx,6,Elevated,40.839892,-73.842952,Pelham Bay Park,Manhattan
236,BX10,BX10 Co-op City-Throgs Neck (CD 10 Approximation),257362.320002,172881009.672,Bronx,480.0,middletown_rd,347772.0,middletown_rd,363.0,362.0,362,603,IRT,Pelham,middletown_rd,Bx,6,Elevated,40.843863,-73.836322,Pelham Bay Park,Manhattan
237,BX10,BX10 Co-op City-Throgs Neck (CD 10 Approximation),257362.320002,172881009.672,Bronx,406.0,buhre_av,666161.0,buhre_av,362.0,361.0,361,602,IRT,Pelham,buhre_av,Bx,6,Elevated,40.84681,-73.832569,Pelham Bay Park,Manhattan
238,BX10,BX10 Co-op City-Throgs Neck (CD 10 Approximation),257362.320002,172881009.672,Bronx,349.0,pelham_bay_park,929811.0,pelham_bay_park,361.0,360.0,360,601,IRT,Pelham,pelham_bay_park,Bx,6,Elevated,40.852462,-73.828121,,Manhattan
239,BX11,BX11 Pelham Parkway-Morris Park (CD 11 Approximation),52408.015285,101431640.048,Bronx,263.0,pelham_pkwy,1508971.0,pelham_pkwy,425.0,424.0,424,211,IRT,Lenox - White Plains Rd,pelham_pkwy,Bx,2 5,Elevated,40.857192,-73.867615,Wakefield - 241 St,Manhattan
240,BX11,BX11 Pelham Parkway-Morris Park (CD 11 Approximation),52408.015285,101431640.048,Bronx,468.0,morris_park,401480.0,morris_park,447.0,446.0,446,505,IRT,Dyre Av,morris_park,Bx,5,Open Cut,40.854364,-73.860495,Eastchester - Dyre Av,Manhattan
241,BX11,BX11 Pelham Parkway-Morris Park (CD 11 Approximation),52408.015285,101431640.048,Bronx,264.0,pelham_pkwy,1508971.0,pelham_pkwy,446.0,445.0,445,504,IRT,Dyre Av,pelham_pkwy,Bx,5,Open Cut,40.858985,-73.855359,Eastchester - Dyre Av,Manhattan
242,BX11,BX11 Pelham Parkway-Morris Park (CD 11 Approximation),52408.015285,101431640.048,Bronx,421.0,allerton_av,621170.0,allerton_av,424.0,423.0,423,210,IRT,Lenox - White Plains Rd,allerton_av,Bx,2 5,Elevated,40.865462,-73.867352,Wakefield - 241 St,Manhattan
243,BX11,BX11 Pelham Parkway-Morris Park (CD 11 Approximation),52408.015285,101431640.048,Bronx,189.0,gun_hill_rd,2277738.0,gun_hill_rd,445.0,444.0,444,503,IRT,Dyre Av,gun_hill_rd,Bx,5,Open Cut,40.869526,-73.846384,Eastchester - Dyre Av,Manhattan
244,BX12,BX12 Wakefield-Williamsbridge-Eastchester (CD 12 Approximation),84041.6092762,150170742.248,Bronx,472.0,burke_av,393323.0,burke_av,423.0,422.0,422,209,IRT,Lenox - White Plains Rd,burke_av,Bx,2 5,Elevated,40.871356,-73.867164,Wakefield - 241 St,Manhattan
245,BX12,BX12 Wakefield-Williamsbridge-Eastchester (CD 12 Approximation),84041.6092762,150170742.248,Bronx,188.0,gun_hill_rd,2277738.0,gun_hill_rd,422.0,421.0,421,208,IRT,Lenox - White Plains Rd,gun_hill_rd,Bx,2 5,Elevated,40.87785,-73.866256,Wakefield - 241 St,Manhattan
246,BX12,BX12 Wakefield-Williamsbridge-Eastchester (CD 12 Approximation),84041.6092762,150170742.248,Bronx,490.0,baychester_av,307569.0,baychester_av,444.0,443.0,443,502,IRT,Dyre Av,baychester_av,Bx,5,Open Cut,40.878663,-73.838591,Eastchester - Dyre Av,Manhattan
247,BX12,BX12 Wakefield-Williamsbridge-Eastchester (CD 12 Approximation),84041.6092762,150170742.248,Bronx,467.0,219_st,410633.0,219_st,421.0,420.0,420,207,IRT,Lenox - White Plains Rd,219_st,Bx,2 5,Elevated,40.883895,-73.862633,Wakefield - 241 St,Manhattan
248,BX12,BX12 Wakefield-Williamsbridge-Eastchester (CD 12 Approximation),84041.6092762,150170742.248,Bronx,459.0,225_st,438948.0,225_st,420.0,419.0,419,206,IRT,Lenox - White Plains Rd,225_st,Bx,2 5,Elevated,40.888022,-73.860341,Wakefield - 241 St,Manhattan
249,BX12,BX12 Wakefield-Williamsbridge-Eastchester (CD 12 Approximation),84041.6092762,150170742.248,Bronx,384.0,eastchster_dyre,754427.0,eastchester_dyre_av,443.0,442.0,442,501,IRT,Dyre Av,eastchester_dyre_av,Bx,5,At Grade,40.8883,-73.830834,,Manhattan
250,BX12,BX12 Wakefield-Williamsbridge-Eastchester (CD 12 Approximation),84041.6092762,150170742.248,Bronx,430.0,233_st,573388.0,233_st,419.0,418.0,418,205,IRT,Lenox - White Plains Rd,233_st,Bx,2 5,Elevated,40.893193,-73.857473,Wakefield - 241 St,Manhattan
251,BX12,BX12 Wakefield-Williamsbridge-Eastchester (CD 12 Approximation),84041.6092762,150170742.248,Bronx,465.0,nereid_av,424231.0,nereid_av,418.0,417.0,417,204,IRT,Lenox - White Plains Rd,nereid_av,Bx,2 5,Elevated,40.898379,-73.854376,Wakefield - 241 St,Manhattan
252,BX12,BX12 Wakefield-Williamsbridge-Eastchester (CD 12 Approximation),84041.6092762,150170742.248,Bronx,355.0,wakefield_241,917189.0,wakefield_241_st,417.0,416.0,416,201,IRT,Lenox - White Plains Rd,wakefield_241_st,Bx,2,Elevated,40.903125,-73.85062,,Manhattan
256,MN01,MN01 Financial District-Tribeca (CD 1 Equivalent),95426.4236767,44813594.5596,Manhattan,217.0,south_ferry,1929295.0,south_ferry,331.0,330.0,635,142,IRT,Broadway - 7Av,south_ferry,M,1,Subway,40.702068,-74.013664,Uptown & The Bronx,
257,MN01,MN01 Financial District-Tribeca (CD 1 Equivalent),95426.4236767,44813594.5596,Manhattan,209.0,whitehall_s_fry,2044643.0,whitehall_st,23.0,23.0,635,R27,BMT,Broadway,whitehall_st,M,R W,Subway,40.703087,-74.012994,Uptown & Queens,Brooklyn
258,MN01,MN01 Financial District-Tribeca (CD 1 Equivalent),95426.4236767,44813594.5596,Manhattan,118.0,bowling_green,3375674.0,bowling_green,415.0,414.0,414,420,IRT,Lexington Av,bowling_green,M,4 5,Subway,40.704817,-74.014065,Uptown & The Bronx,Brooklyn
259,MN01,MN01 Financial District-Tribeca (CD 1 Equivalent),95426.4236767,44813594.5596,Manhattan,439.0,broad_st,542081.0,broad_st,107.0,107.0,107,M23,BMT,Jamaica,broad_st,M,J Z,Subway,40.706476,-74.011056,Brooklyn,
260,MN01,MN01 Financial District-Tribeca (CD 1 Equivalent),95426.4236767,44813594.5596,Manhattan,107.0,wall_st,3777539.0,wall_st,334.0,333.0,333,230,IRT,Clark St,wall_st,M,2 3,Subway,40.706821,-74.0091,Uptown & The Bronx,Brooklyn
261,MN01,MN01 Financial District-Tribeca (CD 1 Equivalent),95426.4236767,44813594.5596,Manhattan,297.0,rector_st,1277499.0,rector_st,22.0,22.0,22,R26,BMT,Broadway,rector_st,M,R W,Subway,40.70722,-74.013342,Uptown & Queens,Downtown & Brooklyn
262,MN01,MN01 Financial District-Tribeca (CD 1 Equivalent),95426.4236767,44813594.5596,Manhattan,298.0,rector_st,1277499.0,rector_st,330.0,329.0,329,139,IRT,Broadway - 7Av,rector_st,M,1,Subway,40.707513,-74.013783,Uptown & The Bronx,Downtown
263,MN01,MN01 Financial District-Tribeca (CD 1 Equivalent),95426.4236767,44813594.5596,Manhattan,108.0,wall_st,3777539.0,wall_st,414.0,413.0,413,419,IRT,Lexington Av,wall_st,M,4 5,Subway,40.707557,-74.011862,Uptown & The Bronx,Downtown & Brooklyn
264,MN01,MN01 Financial District-Tribeca (CD 1 Equivalent),95426.4236767,44813594.5596,Manhattan,26.0,fulton_st,11385559.0,fulton_st,333.0,332.0,628,229,IRT,Clark St,fulton_st,M,2 3,Subway,40.709416,-74.006571,Uptown & The Bronx,Downtown & Brooklyn
265,MN01,MN01 Financial District-Tribeca (CD 1 Equivalent),95426.4236767,44813594.5596,Manhattan,24.0,fulton_st,11385559.0,fulton_st,173.0,172.0,628,A38,IND,8th Av - Fulton St,fulton_st,M,A C,Subway,40.710197,-74.007691,Uptown,Brooklyn
266,MN01,MN01 Financial District-Tribeca (CD 1 Equivalent),95426.4236767,44813594.5596,Manhattan,27.0,fulton_st,11385559.0,fulton_st,413.0,412.0,628,418,IRT,Lexington Av,fulton_st,M,4 5,Subway,40.710368,-74.009509,Uptown & The Bronx,Downtown & Brooklyn
267,MN01,MN01 Financial District-Tribeca (CD 1 Equivalent),95426.4236767,44813594.5596,Manhattan,23.0,fulton_st,11385559.0,fulton_st,106.0,106.0,628,M22,BMT,Jamaica,fulton_st,M,J Z,Subway,40.710374,-74.007582,Brooklyn,Broad St
268,MN01,MN01 Financial District-Tribeca (CD 1 Equivalent),95426.4236767,44813594.5596,Manhattan,361.0,v.cortlandt_pk,884510.0,cortlandt_st,21.0,21.0,624,R25,BMT,Broadway,cortlandt_st,M,R W,Subway,40.710668,-74.011029,Uptown & Queens,Downtown & Brooklyn
269,MN01,MN01 Financial District-Tribeca (CD 1 Equivalent),95426.4236767,44813594.5596,Manhattan,208.0,cortlandt_st,2046136.0,cortlandt_st,21.0,21.0,624,R25,BMT,Broadway,cortlandt_st,M,R W,Subway,40.710668,-74.011029,Uptown & Queens,Downtown & Brooklyn
270,MN01,MN01 Financial District-Tribeca (CD 1 Equivalent),95426.4236767,44813594.5596,Manhattan,232.0,wtc_cortlandt,1720221.0,wtc_cortlandt,329.0,328.0,328,138,IRT,Broadway - 7Av,wtc_cortlandt,M,1,Subway,40.711835,-74.012188,Uptown & The Bronx,Downtown
271,MN01,MN01 Financial District-Tribeca (CD 1 Equivalent),95426.4236767,44813594.5596,Manhattan,225.0,world_trade_ctr,1881269.0,world_trade_center,499.0,,R540,,PTH,,world_trade_center,M,,,40.7120525,-74.014129,,
272,MN01,MN01 Financial District-Tribeca (CD 1 Equivalent),95426.4236767,44813594.5596,Manhattan,224.0,world_trade_ctr,1881269.0,world_trade_center,172.0,171.0,624,E01,IND,8th Av - Fulton St,world_trade_center,M,E,Subway,40.712582,-74.009781,Uptown & Queens,
273,MN01,MN01 Financial District-Tribeca (CD 1 Equivalent),95426.4236767,44813594.5596,Manhattan,412.0,park_place,637696.0,park_pl,332.0,331.0,624,228,IRT,Clark St,park_pl,M,2 3,Subway,40.713051,-74.008811,Uptown & The Bronx,Downtown & Brooklyn
274,MN01,MN01 Financial District-Tribeca (CD 1 Equivalent),95426.4236767,44813594.5596,Manhattan,183.0,brooklyn_bridge,2308257.0,brooklyn_bridge_city_hall,412.0,411.0,622,640,IRT,Lexington Av,brooklyn_bridge_city_hall,M,4 5 6,Subway,40.713065,-74.004131,Uptown & The Bronx,Downtown & Brooklyn
275,MN01,MN01 Financial District-Tribeca (CD 1 Equivalent),95426.4236767,44813594.5596,Manhattan,61.0,chambers_st,6427472.0,chambers_st,105.0,105.0,622,M21,BMT,Jamaica,chambers_st,M,J Z,Subway,40.713243,-74.003401,Brooklyn,Broad St
276,MN01,MN01 Financial District-Tribeca (CD 1 Equivalent),95426.4236767,44813594.5596,Manhattan,438.0,city_hall,544417.0,city_hall,20.0,20.0,20,R24,BMT,Broadway,city_hall,M,R W,Subway,40.713282,-74.006978,Uptown & Queens,Downtown & Brooklyn
277,MN01,MN01 Financial District-Tribeca (CD 1 Equivalent),95426.4236767,44813594.5596,Manhattan,198.0,city___bus,2179999.0,city_hall,20.0,20.0,20,R24,BMT,Broadway,city_hall,M,R W,Subway,40.713282,-74.006978,Uptown & Queens,Downtown & Brooklyn
278,MN01,MN01 Financial District-Tribeca (CD 1 Equivalent),95426.4236767,44813594.5596,Manhattan,62.0,chambers_st,6427472.0,chambers_st,171.0,170.0,624,A36,IND,8th Av - Fulton St,chambers_st,M,A C,Subway,40.714111,-74.008585,Uptown,Downtown & Brooklyn
279,MN01,MN01 Financial District-Tribeca (CD 1 Equivalent),95426.4236767,44813594.5596,Manhattan,63.0,chambers_st,6427472.0,chambers_st,328.0,327.0,327,137,IRT,Broadway - 7Av,chambers_st,M,1 2 3,Subway,40.715478,-74.009266,Uptown & The Bronx,Downtown & Brooklyn
280,MN01,MN01 Financial District-Tribeca (CD 1 Equivalent),95426.4236767,44813594.5596,Manhattan,424.0,franklin_st,594686.0,franklin_st,327.0,326.0,326,136,IRT,Broadway - 7Av,franklin_st,M,1,Subway,40.719318,-74.006886,Uptown & The Bronx,Downtown
281,MN01,MN01 Financial District-Tribeca (CD 1 Equivalent),95426.4236767,44813594.5596,Manhattan,40.0,canal_st,8680714.0,canal_st,170.0,169.0,169,A34,IND,8th Av - Fulton St,canal_st,M,A C E,Subway,40.720824,-74.005229,Uptown - Queens,Downtown & Brooklyn
282,MN02,MN02 Greenwich Village-SoHo (CD 2 Equivalent),35307.7154585,37897868.9628,Manhattan,168.0,spring_st,2460098.0,spring_st,410.0,409.0,409,638,IRT,Lexington Av,spring_st,M,6,Subway,40.722301,-73.997141,Uptown & The Bronx,Downtown
283,MN02,MN02 Greenwich Village-SoHo (CD 2 Equivalent),35307.7154585,37897868.9628,Manhattan,230.0,prince_st,1832195.0,prince_st,17.0,17.0,17,R22,BMT,Broadway - Brighton,prince_st,M,R W,Subway,40.724329,-73.997702,Uptown & Queens,Downtown & Brooklyn
284,MN02,MN02 Greenwich Village-SoHo (CD 2 Equivalent),35307.7154585,37897868.9628,Manhattan,114.0,b'way_lafayette,3685534.0,broadway_lafayette_st,231.0,230.0,619,D21,IND,6th Av - Culver,broadway_lafayette_st,M,B D F M,Subway,40.725297,-73.996204,Uptown & The Bronx - Queens,Downtown & Brooklyn
285,MN02,MN02 Greenwich Village-SoHo (CD 2 Equivalent),35307.7154585,37897868.9628,Manhattan,39.0,canal_st,8680714.0,canal_st,104.0,104.0,623,M20,BMT,Jamaica,canal_st,M,J Z,Subway,40.718092,-73.999892,Brooklyn,Broad St
286,MN02,MN02 Greenwich Village-SoHo (CD 2 Equivalent),35307.7154585,37897868.9628,Manhattan,38.0,canal_st,8680714.0,canal_st,19.0,19.0,623,Q01,BMT,Manhattan Bridge,canal_st,M,N Q,Subway,40.718383,-74.00046,Uptown & Queens,Downtown & Brooklyn
287,MN02,MN02 Greenwich Village-SoHo (CD 2 Equivalent),35307.7154585,37897868.9628,Manhattan,42.0,canal_st,8680714.0,canal_st,411.0,410.0,623,639,IRT,Lexington Av,canal_st,M,6,Subway,40.718803,-74.000193,Uptown & The Bronx,Downtown
288,MN02,MN02 Greenwich Village-SoHo (CD 2 Equivalent),35307.7154585,37897868.9628,Manhattan,37.0,canal_st,8680714.0,canal_st,18.0,18.0,623,R23,BMT,Broadway,canal_st,M,R W,Subway,40.719527,-74.001775,Uptown & Queens,Downtown & Brooklyn
289,MN02,MN02 Greenwich Village-SoHo (CD 2 Equivalent),35307.7154585,37897868.9628,Manhattan,41.0,canal_st,8680714.0,canal_st,326.0,325.0,325,135,IRT,Broadway - 7Av,canal_st,M,1,Subway,40.722854,-74.006277,Uptown & The Bronx,Downtown
290,MN02,MN02 Greenwich Village-SoHo (CD 2 Equivalent),35307.7154585,37897868.9628,Manhattan,283.0,bleecker_st,1367020.0,bleecker_st,409.0,408.0,619,637,IRT,Lexington Av,bleecker_st,M,6,Subway,40.725915,-73.994659,Uptown & The Bronx,Downtown
291,MN02,MN02 Greenwich Village-SoHo (CD 2 Equivalent),35307.7154585,37897868.9628,Manhattan,206.0,astor_pl,2090503.0,astor_pl,408.0,407.0,407,636,IRT,Lexington Av,astor_pl,M,6,Subway,40.730054,-73.99107,Uptown & The Bronx,Downtown
292,MN02,MN02 Greenwich Village-SoHo (CD 2 Equivalent),35307.7154585,37897868.9628,Manhattan,219.0,81_st_museum,1908119.0,8_st_nyu,16.0,16.0,16,R21,BMT,Broadway - Brighton,8_st_nyu,M,R W,Subway,40.730328,-73.992629,Uptown & Queens,Downtown & Brooklyn
293,MN02,MN02 Greenwich Village-SoHo (CD 2 Equivalent),35307.7154585,37897868.9628,Manhattan,218.0,8_st_nyu,1922653.0,8_st_nyu,16.0,16.0,16,R21,BMT,Broadway - Brighton,8_st_nyu,M,R W,Subway,40.730328,-73.992629,Uptown & Queens,Downtown & Brooklyn
294,MN02,MN02 Greenwich Village-SoHo (CD 2 Equivalent),35307.7154585,37897868.9628,Manhattan,167.0,spring_st,2460098.0,spring_st,169.0,168.0,168,A33,IND,8th Av - Fulton St,spring_st,M,C E,Subway,40.726227,-74.003739,Uptown - Queens,Downtown & Brooklyn
295,MN02,MN02 Greenwich Village-SoHo (CD 2 Equivalent),35307.7154585,37897868.9628,Manhattan,270.0,houston_st,1488271.0,houston_st,325.0,324.0,324,134,IRT,Broadway - 7Av,houston_st,M,1,Subway,40.728251,-74.005367,Uptown & The Bronx,Downtown
296,MN02,MN02 Greenwich Village-SoHo (CD 2 Equivalent),35307.7154585,37897868.9628,Manhattan,172.0,christopher_st,2409486.0,christopher_st,507.0,,R548,,PTH,,christopher_st,M,,,40.732593,-74.0089239,,
297,MN02,MN02 Greenwich Village-SoHo (CD 2 Equivalent),35307.7154585,37897868.9628,Manhattan,358.0,9th_street,905389.0,9_st,506.0,,R547,,PTH,,9_st,M,,,40.7344094,-74.0004635,,
298,MN02,MN02 Greenwich Village-SoHo (CD 2 Equivalent),35307.7154585,37897868.9628,Manhattan,52.0,14_st,8152578.0,14_st,323.0,322.0,601,132,IRT,Broadway - 7Av,14_st,M,1 2 3,Subway,40.737826,-74.000201,Uptown & The Bronx,Downtown & Brooklyn
299,MN02,MN02 Greenwich Village-SoHo (CD 2 Equivalent),35307.7154585,37897868.9628,Manhattan,261.0,14th_street,1510568.0,14_st,323.0,322.0,601,132,IRT,Broadway - 7Av,14_st,M,1 2 3,Subway,40.737826,-74.000201,Uptown & The Bronx,Downtown & Brooklyn
300,MN02,MN02 Greenwich Village-SoHo (CD 2 Equivalent),35307.7154585,37897868.9628,Manhattan,423.0,6_av,596129.0,6_av,116.0,116.0,601,L02,BMT,Canarsie,6_av,M,L,Subway,40.737335,-73.996786,8 Av,Brooklyn
301,MN03,MN03 Lower East Side-Chinatown (CD 3 Equivalent),34997.0793977,46994849.606,Manhattan,237.0,east_broadway,1678244.0,east_broadway,235.0,234.0,234,F16,IND,6th Av - Culver,east_broadway,M,F,Subway,40.713715,-73.990173,Uptown & Queens,Brooklyn
302,MN03,MN03 Lower East Side-Chinatown (CD 3 Equivalent),34997.0793977,46994849.606,Manhattan,110.0,grand_st,3691545.0,grand_st,232.0,231.0,231,D22,IND,6th Av - Culver,grand_st,M,B D,Subway,40.718267,-73.993753,Uptown & The Bronx,Brooklyn
303,MN03,MN03 Lower East Side-Chinatown (CD 3 Equivalent),34997.0793977,46994849.606,Manhattan,102.0,delancey_essex,4100990.0,delancey_st,234.0,233.0,625,F15,IND,6th Av - Culver,delancey_st,M,F,Subway,40.718611,-73.988114,Uptown & Queens,Downtown & Brooklyn
304,MN03,MN03 Lower East Side-Chinatown (CD 3 Equivalent),34997.0793977,46994849.606,Manhattan,410.0,bowery,639035.0,bowery,103.0,103.0,103,M19,BMT,Jamaica,bowery,M,J Z,Subway,40.72028,-73.993915,Brooklyn,Broad St
305,MN03,MN03 Lower East Side-Chinatown (CD 3 Equivalent),34997.0793977,46994849.606,Manhattan,182.0,2_av,2311338.0,2_av,233.0,232.0,232,F14,IND,6th Av - Culver,2_av,M,F,Subway,40.723402,-73.989938,Uptown & Queens,Downtown & Brooklyn
306,MN03,MN03 Lower East Side-Chinatown (CD 3 Equivalent),34997.0793977,46994849.606,Manhattan,115.0,1_av,3657174.0,1_av,119.0,119.0,119,L06,BMT,Canarsie,1_av,M,L,Subway,40.730953,-73.981628,8 Av,Brooklyn
307,MN04,MN04 Chelsea-Hell's Kitchen (CD 4 Approximation),65076.9124101,48055293.4836,Manhattan,53.0,14_st,8152578.0,14_st,504.0,,R545,,PTH,,14_st,M,,,40.7385072,-73.9987414,,
308,MN04,MN04 Chelsea-Hell's Kitchen (CD 4 Approximation),65076.9124101,48055293.4836,Manhattan,262.0,14th_street,1510568.0,14_st,504.0,,R545,,PTH,,14_st,M,,,40.7385072,-73.9987414,,
309,MN04,MN04 Chelsea-Hell's Kitchen (CD 4 Approximation),65076.9124101,48055293.4836,Manhattan,86.0,8_av,4642534.0,8_av,115.0,115.0,618,L01,BMT,Canarsie,8_av,M,L,Subway,40.739777,-74.002578,,Brooklyn
310,MN04,MN04 Chelsea-Hell's Kitchen (CD 4 Approximation),65076.9124101,48055293.4836,Manhattan,259.0,14th_street,1510568.0,14_st,166.0,166.0,618,A31,IND,8th Av - Fulton St,14_st,M,A C E,Subway,40.740893,-74.00169,Uptown - Queens,Downtown & Brooklyn
311,MN04,MN04 Chelsea-Hell's Kitchen (CD 4 Approximation),65076.9124101,48055293.4836,Manhattan,50.0,14_st,8152578.0,14_st,166.0,166.0,618,A31,IND,8th Av - Fulton St,14_st,M,A C E,Subway,40.740893,-74.00169,Uptown - Queens,Downtown & Brooklyn
312,MN04,MN04 Chelsea-Hell's Kitchen (CD 4 Approximation),65076.9124101,48055293.4836,Manhattan,51.0,14_st,8152578.0,14_st,230.0,229.0,601,D19,IND,6th Av - Culver,14_st,M,F M,Subway,40.738228,-73.996209,Uptown & Queens,Downtown & Brooklyn
313,MN04,MN04 Chelsea-Hell's Kitchen (CD 4 Approximation),65076.9124101,48055293.4836,Manhattan,260.0,14th_street,1510568.0,14_st,230.0,229.0,601,D19,IND,6th Av - Culver,14_st,M,F M,Subway,40.738228,-73.996209,Uptown & Queens,Downtown & Brooklyn
314,MN04,MN04 Chelsea-Hell's Kitchen (CD 4 Approximation),65076.9124101,48055293.4836,Manhattan,346.0,18_st,943881.0,18_st,322.0,321.0,321,131,IRT,Broadway - 7Av,18_st,M,1,Subway,40.74104,-73.997871,Uptown & The Bronx,Downtown
315,MN04,MN04 Chelsea-Hell's Kitchen (CD 4 Approximation),65076.9124101,48055293.4836,Manhattan,7.0,23_st,12751165.0,23_st,501.0,,R542,,PTH,,23_st,M,,,40.7426718,-73.9941768,,
316,MN04,MN04 Chelsea-Hell's Kitchen (CD 4 Approximation),65076.9124101,48055293.4836,Manhattan,5.0,23_st,12751165.0,23_st,321.0,320.0,320,130,IRT,Broadway - 7Av,23_st,M,1,Subway,40.744081,-73.995657,Uptown & The Bronx,Downtown
317,MN04,MN04 Chelsea-Hell's Kitchen (CD 4 Approximation),65076.9124101,48055293.4836,Manhattan,3.0,23_st,12751165.0,23_st,165.0,165.0,165,A30,IND,8th Av - Fulton St,23_st,M,C E,Subway,40.745906,-73.998041,Uptown - Queens,Downtown & Brooklyn
318,MN04,MN04 Chelsea-Hell's Kitchen (CD 4 Approximation),65076.9124101,48055293.4836,Manhattan,66.0,50_st,6162458.0,50_st,162.0,162.0,162,A25,IND,8th Av - Fulton St,50_st,M,C E,Subway,40.762456,-73.985984,Uptown - Queens,Downtown & Brooklyn
319,MN05,MN05 Midtown-Flatiron-Union Square (CD 5 Approximation),31821.6527494,39430871.4771,Manhattan,6.0,23_st,12751165.0,23_st,406.0,405.0,405,634,IRT,Lexington Av,23_st,M,6,Subway,40.739864,-73.986599,Uptown & The Bronx,Downtown
320,MN05,MN05 Midtown-Flatiron-Union Square (CD 5 Approximation),31821.6527494,39430871.4771,Manhattan,71.0,28_st,6055167.0,28_st,405.0,404.0,404,633,IRT,Lexington Av,28_st,M,6,Subway,40.74307,-73.984264,Uptown & The Bronx,Downtown
321,MN05,MN05 Midtown-Flatiron-Union Square (CD 5 Approximation),31821.6527494,39430871.4771,Manhattan,130.0,33_st,3157015.0,33_st,404.0,403.0,403,632,IRT,Lexington Av,33_st,M,6,Subway,40.746081,-73.982076,Uptown & The Bronx,Downtown
322,MN05,MN05 Midtown-Flatiron-Union Square (CD 5 Approximation),31821.6527494,39430871.4771,Manhattan,144.0,34_st_hudson_yd,2736621.0,14_st_union_sq,407.0,406.0,602,635,IRT,Lexington Av,14_st_union_sq,M,4 5 6,Subway,40.734673,-73.989951,Uptown & The Bronx,Downtown & Brooklyn
323,MN05,MN05 Midtown-Flatiron-Union Square (CD 5 Approximation),31821.6527494,39430871.4771,Manhattan,191.0,46_st_bliss_st,2270061.0,14_st_union_sq,407.0,406.0,602,635,IRT,Lexington Av,14_st_union_sq,M,4 5 6,Subway,40.734673,-73.989951,Uptown & The Bronx,Downtown & Brooklyn
324,MN05,MN05 Midtown-Flatiron-Union Square (CD 5 Approximation),31821.6527494,39430871.4771,Manhattan,33.0,14_st_union_sq,10542438.0,14_st_union_sq,407.0,406.0,602,635,IRT,Lexington Av,14_st_union_sq,M,4 5 6,Subway,40.734673,-73.989951,Uptown & The Bronx,Downtown & Brooklyn
325,MN05,MN05 Midtown-Flatiron-Union Square (CD 5 Approximation),31821.6527494,39430871.4771,Manhattan,190.0,46_st_bliss_st,2270061.0,14_st_union_sq,15.0,15.0,602,R20,BMT,Broadway - Brighton,14_st_union_sq,M,N Q R W,Subway,40.735736,-73.990568,Uptown & Queens,Downtown & Brooklyn
326,MN05,MN05 Midtown-Flatiron-Union Square (CD 5 Approximation),31821.6527494,39430871.4771,Manhattan,32.0,14_st_union_sq,10542438.0,14_st_union_sq,15.0,15.0,602,R20,BMT,Broadway - Brighton,14_st_union_sq,M,N Q R W,Subway,40.735736,-73.990568,Uptown & Queens,Downtown & Brooklyn
327,MN05,MN05 Midtown-Flatiron-Union Square (CD 5 Approximation),31821.6527494,39430871.4771,Manhattan,143.0,34_st_hudson_yd,2736621.0,14_st_union_sq,15.0,15.0,602,R20,BMT,Broadway - Brighton,14_st_union_sq,M,N Q R W,Subway,40.735736,-73.990568,Uptown & Queens,Downtown & Brooklyn
328,MN05,MN05 Midtown-Flatiron-Union Square (CD 5 Approximation),31821.6527494,39430871.4771,Manhattan,2.0,23_st,12751165.0,23_st,14.0,14.0,14,R19,BMT,Broadway - Brighton,23_st,M,R W,Subway,40.741303,-73.989344,Uptown & Queens,Downtown & Brooklyn
329,MN05,MN05 Midtown-Flatiron-Union Square (CD 5 Approximation),31821.6527494,39430871.4771,Manhattan,4.0,23_st,12751165.0,23_st,229.0,228.0,228,D18,IND,6th Av - Culver,23_st,M,F M,Subway,40.742878,-73.992821,Uptown & Queens,Downtown & Brooklyn
330,MN05,MN05 Midtown-Flatiron-Union Square (CD 5 Approximation),31821.6527494,39430871.4771,Manhattan,69.0,28_st,6055167.0,28_st,13.0,13.0,13,R18,BMT,Broadway - Brighton,28_st,M,R W,Subway,40.745494,-73.988691,Uptown & Queens,Downtown & Brooklyn
331,MN05,MN05 Midtown-Flatiron-Union Square (CD 5 Approximation),31821.6527494,39430871.4771,Manhattan,70.0,28_st,6055167.0,28_st,320.0,319.0,319,129,IRT,Broadway - 7Av,28_st,M,1,Subway,40.747215,-73.993365,Uptown & The Bronx,Downtown
332,MN05,MN05 Midtown-Flatiron-Union Square (CD 5 Approximation),31821.6527494,39430871.4771,Manhattan,132.0,33_st,3157015.0,33_st,500.0,,R541,,PTH,,33_st,M,,,40.7478505,-73.9898747,,
333,MN05,MN05 Midtown-Flatiron-Union Square (CD 5 Approximation),31821.6527494,39430871.4771,Manhattan,268.0,40_st_lowery_st,1489400.0,34_st_herald_sq,12.0,12.0,607,R17,BMT,Broadway - Brighton,34_st_herald_sq,M,N Q R W,Subway,40.749567,-73.98795,Uptown & Queens,Downtown & Brooklyn
334,MN05,MN05 Midtown-Flatiron-Union Square (CD 5 Approximation),31821.6527494,39430871.4771,Manhattan,105.0,w_4_st_wash_sq,3974225.0,34_st_herald_sq,12.0,12.0,607,R17,BMT,Broadway - Brighton,34_st_herald_sq,M,N Q R W,Subway,40.749567,-73.98795,Uptown & Queens,Downtown & Brooklyn
335,MN05,MN05 Midtown-Flatiron-Union Square (CD 5 Approximation),31821.6527494,39430871.4771,Manhattan,21.0,34_st_herald_sq,11564353.0,34_st_herald_sq,12.0,12.0,607,R17,BMT,Broadway - Brighton,34_st_herald_sq,M,N Q R W,Subway,40.749567,-73.98795,Uptown & Queens,Downtown & Brooklyn
336,MN05,MN05 Midtown-Flatiron-Union Square (CD 5 Approximation),31821.6527494,39430871.4771,Manhattan,269.0,40_st_lowery_st,1489400.0,34_st_herald_sq,228.0,227.0,607,D17,IND,6th Av - Culver,34_st_herald_sq,M,B D F M,Subway,40.749719,-73.987823,Uptown & The Bronx - Queens,Downtown & Brooklyn
337,MN05,MN05 Midtown-Flatiron-Union Square (CD 5 Approximation),31821.6527494,39430871.4771,Manhattan,22.0,34_st_herald_sq,11564353.0,34_st_herald_sq,228.0,227.0,607,D17,IND,6th Av - Culver,34_st_herald_sq,M,B D F M,Subway,40.749719,-73.987823,Uptown & The Bronx - Queens,Downtown & Brooklyn
338,MN05,MN05 Midtown-Flatiron-Union Square (CD 5 Approximation),31821.6527494,39430871.4771,Manhattan,106.0,w_4_st_wash_sq,3974225.0,34_st_herald_sq,228.0,227.0,607,D17,IND,6th Av - Culver,34_st_herald_sq,M,B D F M,Subway,40.749719,-73.987823,Uptown & The Bronx - Queens,Downtown & Brooklyn
339,MN05,MN05 Midtown-Flatiron-Union Square (CD 5 Approximation),31821.6527494,39430871.4771,Manhattan,1.0,34_st_penn_sta,18441049.0,34_st_penn_station,319.0,318.0,318,128,IRT,Broadway - 7Av,34_st_penn_station,M,1 2 3,Subway,40.750373,-73.991057,Uptown & The Bronx,Downtown & Brooklyn
340,MN05,MN05 Midtown-Flatiron-Union Square (CD 5 Approximation),31821.6527494,39430871.4771,Manhattan,0.0,34_st_penn_sta,18441049.0,34_st_penn_station,164.0,164.0,164,A28,IND,8th Av - Fulton St,34_st_penn_station,M,A C E,Subway,40.752287,-73.993391,Uptown - Queens,Downtown & Brooklyn
341,MN05,MN05 Midtown-Flatiron-Union Square (CD 5 Approximation),31821.6527494,39430871.4771,Manhattan,11.0,times_sq_42_st,11829913.0,times_sq_42_st,11.0,11.0,611,R16,BMT,Broadway - Brighton,times_sq_42_st,M,N Q R W,Subway,40.754672,-73.986754,Uptown & Queens,Downtown & Brooklyn
342,MN05,MN05 Midtown-Flatiron-Union Square (CD 5 Approximation),31821.6527494,39430871.4771,Manhattan,12.0,times_sq_42_st,11829913.0,times_sq_42_st,318.0,317.0,611,127,IRT,Broadway - 7Av,times_sq_42_st,M,1 2 3,Subway,40.75529,-73.987495,Uptown & The Bronx,Downtown & Brooklyn
343,MN05,MN05 Midtown-Flatiron-Union Square (CD 5 Approximation),31821.6527494,39430871.4771,Manhattan,13.0,times_sq_42_st,11829913.0,times_sq_42_st,469.0,467.0,611,725,IRT,Flushing,times_sq_42_st,M,7,Subway,40.755477,-73.987691,Queens,34 St - Hudson Yards
344,MN05,MN05 Midtown-Flatiron-Union Square (CD 5 Approximation),31821.6527494,39430871.4771,Manhattan,34.0,42_st_port_auth,10352272.0,42_st_port_authority_bus_terminal,163.0,163.0,611,A27,IND,8th Av - Fulton St,42_st_port_authority_bus_terminal,M,A C E,Subway,40.757308,-73.989735,Uptown - Queens,Downtown & Brooklyn
345,MN05,MN05 Midtown-Flatiron-Union Square (CD 5 Approximation),31821.6527494,39430871.4771,Manhattan,10.0,grd_cntrl_42_st,12704382.0,grand_central_42_st,471.0,469.0,610,901,IRT,Lexington - Shuttle,grand_central_42_st,M,S,Subway,40.752769,-73.979189,Times Sq,
346,MN05,MN05 Midtown-Flatiron-Union Square (CD 5 Approximation),31821.6527494,39430871.4771,Manhattan,284.0,5_ave,1362968.0,5_av,468.0,466.0,609,724,IRT,Flushing,5_av,M,7,Subway,40.753821,-73.981963,Queens,34 St - Hudson Yards
347,MN05,MN05 Midtown-Flatiron-Union Square (CD 5 Approximation),31821.6527494,39430871.4771,Manhattan,89.0,42_st_bryant_pk,4579159.0,42_st_bryant_pk,227.0,226.0,609,D16,IND,6th Av - Culver,42_st_bryant_pk,M,B D F M,Subway,40.754222,-73.984569,Uptown & The Bronx - Queens,Downtown & Brooklyn
348,MN05,MN05 Midtown-Flatiron-Union Square (CD 5 Approximation),31821.6527494,39430871.4771,Manhattan,14.0,times_sq_42_st,11829913.0,times_sq_42_st,470.0,468.0,611,902,IRT,Lexington - Shuttle,times_sq_42_st,M,S,Subway,40.755983,-73.986229,,Grand Central
349,MN05,MN05 Midtown-Flatiron-Union Square (CD 5 Approximation),31821.6527494,39430871.4771,Manhattan,68.0,47_50_sts_rock,6154111.0,47_50_sts_rockefeller_ctr,226.0,225.0,225,D15,IND,6th Av - Culver,47_50_sts_rockefeller_ctr,M,B D F M,Subway,40.758663,-73.981329,Uptown & The Bronx - Queens,Downtown & Brooklyn
350,MN05,MN05 Midtown-Flatiron-Union Square (CD 5 Approximation),31821.6527494,39430871.4771,Manhattan,432.0,75_st_elderts,565102.0,47_50_sts_rockefeller_ctr,226.0,225.0,225,D15,IND,6th Av - Culver,47_50_sts_rockefeller_ctr,M,B D F M,Subway,40.758663,-73.981329,Uptown & The Bronx - Queens,Downtown & Brooklyn
351,MN05,MN05 Midtown-Flatiron-Union Square (CD 5 Approximation),31821.6527494,39430871.4771,Manhattan,139.0,49_st,2988704.0,49_st,10.0,10.0,10,R15,BMT,Broadway - Brighton,49_st,M,N R W,Subway,40.759901,-73.984139,Uptown & Queens,Downtown & Brooklyn
352,MN05,MN05 Midtown-Flatiron-Union Square (CD 5 Approximation),31821.6527494,39430871.4771,Manhattan,173.0,5_av_53_st,2409368.0,5_av_53_st,277.0,276.0,276,F12,IND,Queens Blvd,5_av_53_st,M,E M,Subway,40.760167,-73.975224,Queens,Downtown & Brooklyn
353,MN05,MN05 Midtown-Flatiron-Union Square (CD 5 Approximation),31821.6527494,39430871.4771,Manhattan,67.0,50_st,6162458.0,50_st,317.0,316.0,316,126,IRT,Broadway - 7Av,50_st,M,1,Subway,40.761728,-73.983849,Uptown & The Bronx,Downtown
354,MN05,MN05 Midtown-Flatiron-Union Square (CD 5 Approximation),31821.6527494,39430871.4771,Manhattan,77.0,7_av,5070083.0,7_av,278.0,277.0,277,D14,IND,Queens Blvd,7_av,M,B D E,Subway,40.762862,-73.981637,Uptown & The Bronx - Queens,Downtown & Brooklyn
355,MN05,MN05 Midtown-Flatiron-Union Square (CD 5 Approximation),31821.6527494,39430871.4771,Manhattan,205.0,57_st,2125042.0,57_st,225.0,224.0,224,B10,IND,6th Av - Culver,57_st,M,F,Subway,40.763972,-73.97745,Uptown & Queens,Downtown & Brooklyn
356,MN05,MN05 Midtown-Flatiron-Union Square (CD 5 Approximation),31821.6527494,39430871.4771,Manhattan,166.0,96_st_2_ave,2497562.0,57_st_7_av,9.0,9.0,9,R14,BMT,Broadway - Brighton,57_st_7_av,M,N Q R W,Subway,40.764664,-73.980658,Uptown & Queens,Downtown & Brooklyn
357,MN05,MN05 Midtown-Flatiron-Union Square (CD 5 Approximation),31821.6527494,39430871.4771,Manhattan,97.0,57_st_7_av,4188922.0,57_st_7_av,9.0,9.0,9,R14,BMT,Broadway - Brighton,57_st_7_av,M,N Q R W,Subway,40.764664,-73.980658,Uptown & Queens,Downtown & Brooklyn
358,MN05,MN05 Midtown-Flatiron-Union Square (CD 5 Approximation),31821.6527494,39430871.4771,Manhattan,142.0,86_st_2_ave,2789662.0,57_st_7_av,9.0,9.0,9,R14,BMT,Broadway - Brighton,57_st_7_av,M,N Q R W,Subway,40.764664,-73.980658,Uptown & Queens,Downtown & Brooklyn
359,MN05,MN05 Midtown-Flatiron-Union Square (CD 5 Approximation),31821.6527494,39430871.4771,Manhattan,96.0,72_st_2_ave,4197421.0,57_st_7_av,9.0,9.0,9,R14,BMT,Broadway - Brighton,57_st_7_av,M,N Q R W,Subway,40.764664,-73.980658,Uptown & Queens,Downtown & Brooklyn
360,MN06,MN06 East Midtown-Murray Hill (CD 6 Approximation),41744.4250574,43102978.2496,Manhattan,153.0,51_st,2586324.0,51_st,402.0,401.0,612,630,IRT,Lexington Av,51_st,M,6,Subway,40.757107,-73.97192,Uptown & The Bronx,Downtown
361,MN06,MN06 East Midtown-Murray Hill (CD 6 Approximation),41744.4250574,43102978.2496,Manhattan,95.0,lexington_av_53,4377188.0,lexington_av_53_st,276.0,275.0,612,F11,IND,Queens Blvd,lexington_av_53_st,M,E M,Subway,40.757552,-73.969055,Queens,Downtown & Brooklyn
362,MN06,MN06 East Midtown-Murray Hill (CD 6 Approximation),41744.4250574,43102978.2496,Manhattan,332.0,3_av,1056949.0,3_av,118.0,118.0,118,L05,BMT,Canarsie,3_av,M,L,Subway,40.732849,-73.986122,8 Av,Brooklyn
363,MN06,MN06 East Midtown-Murray Hill (CD 6 Approximation),41744.4250574,43102978.2496,Manhattan,9.0,grd_cntrl_42_st,12704382.0,grand_central_42_st,467.0,465.0,610,723,IRT,Flushing,grand_central_42_st,M,7,Subway,40.751431,-73.976041,Queens,34 St - Hudson Yards
364,MN06,MN06 East Midtown-Murray Hill (CD 6 Approximation),41744.4250574,43102978.2496,Manhattan,8.0,grd_cntrl_42_st,12704382.0,grand_central_42_st,403.0,402.0,610,631,IRT,Lexington Av,grand_central_42_st,M,4 5 6,Subway,40.751776,-73.976848,Uptown & The Bronx,Downtown & Brooklyn
365,MN07,MN07 Upper West Side (CD 7 Approximation),42120.0764372,54408192.8452,Manhattan,56.0,72_st,6714288.0,72_st,314.0,313.0,313,123,IRT,Broadway - 7Av,72_st,M,1 2 3,Subway,40.778453,-73.98197,Uptown & The Bronx,Downtown & Brooklyn
366,MN07,MN07 Upper West Side (CD 7 Approximation),42120.0764372,54408192.8452,Manhattan,146.0,79_st,2723291.0,79_st,313.0,312.0,312,122,IRT,Broadway - 7Av,79_st,M,1,Subway,40.783934,-73.979917,Uptown & The Bronx,Downtown
367,MN07,MN07 Upper West Side (CD 7 Approximation),42120.0764372,54408192.8452,Manhattan,18.0,86_st,11659593.0,86_st,312.0,311.0,311,121,IRT,Broadway - 7Av,86_st,M,1,Subway,40.788644,-73.976218,Uptown & The Bronx,Downtown
368,MN07,MN07 Upper West Side (CD 7 Approximation),42120.0764372,54408192.8452,Manhattan,49.0,59_st_columbus,8174617.0,59_st_columbus_circle,316.0,315.0,614,125,IRT,Broadway - 7Av,59_st_columbus_circle,M,1,Subway,40.768247,-73.981929,Uptown & The Bronx,Downtown
369,MN07,MN07 Upper West Side (CD 7 Approximation),42120.0764372,54408192.8452,Manhattan,48.0,59_st_columbus,8174617.0,59_st_columbus_circle,161.0,161.0,614,A24,IND,8th Av - Fulton St,59_st_columbus_circle,M,A B C D,Subway,40.768296,-73.981736,Uptown & The Bronx,Downtown & Brooklyn
370,MN07,MN07 Upper West Side (CD 7 Approximation),42120.0764372,54408192.8452,Manhattan,129.0,66_st_lincoln,3187689.0,66_st_lincoln_center,315.0,314.0,314,124,IRT,Broadway - 7Av,66_st_lincoln_center,M,1,Subway,40.77344,-73.982209,Uptown & The Bronx,Downtown
371,MN07,MN07 Upper West Side (CD 7 Approximation),42120.0764372,54408192.8452,Manhattan,44.0,96_st,8468126.0,96_st,311.0,310.0,310,120,IRT,Broadway - 7Av,96_st,M,1 2 3,Subway,40.793919,-73.972323,Uptown & The Bronx,Downtown & Brooklyn
372,MN07,MN07 Upper West Side (CD 7 Approximation),42120.0764372,54408192.8452,Manhattan,99.0,103_st,4162000.0,103_st,310.0,309.0,309,119,IRT,Broadway - 7Av,103_st,M,1,Subway,40.799446,-73.968379,Uptown & The Bronx,Downtown
373,MN07,MN07 Upper West Side (CD 7 Approximation),42120.0764372,54408192.8452,Manhattan,171.0,cathedral_pkwy,2417139.0,cathedral_pkwy,309.0,308.0,308,118,IRT,Broadway - 7Av,cathedral_pkwy,M,1,Subway,40.803967,-73.966847,Uptown & The Bronx,Downtown
374,MN08,MN08 Upper East Side-Roosevelt Island (CD 8 Equivalent),54915.0914677,55211707.6907,Manhattan,290.0,roosevelt_islnd,1313603.0,roosevelt_island,223.0,222.0,222,B06,IND,63rd St,roosevelt_island,M,F,Subway,40.759145,-73.95326,Queens,Manhattan
375,MN08,MN08 Upper East Side-Roosevelt Island (CD 8 Equivalent),54915.0914677,55211707.6907,Manhattan,456.0,rit_roosevelt,472831.0,roosevelt_island,223.0,222.0,222,B06,IND,63rd St,roosevelt_island,M,F,Subway,40.759145,-73.95326,Queens,Manhattan
376,MN08,MN08 Upper East Side-Roosevelt Island (CD 8 Equivalent),54915.0914677,55211707.6907,Manhattan,36.0,59_st,9299899.0,59_st,401.0,400.0,613,629,IRT,Lexington Av,59_st,M,4 5 6,Subway,40.762526,-73.967967,Uptown & The Bronx,Downtown & Brooklyn
377,MN08,MN08 Upper East Side-Roosevelt Island (CD 8 Equivalent),54915.0914677,55211707.6907,Manhattan,140.0,lexington_av_63,2813441.0,lexington_av_63_st,224.0,223.0,223,B08,IND,63rd St,lexington_av_63_st,M,F Q,Subway,40.764629,-73.966113,Uptown - Queens,Downtown & Brooklyn
378,MN08,MN08 Upper East Side-Roosevelt Island (CD 8 Equivalent),54915.0914677,55211707.6907,Manhattan,141.0,68st_hunter_co,2796013.0,68_st_hunter_college,400.0,399.0,399,628,IRT,Lexington Av,68_st_hunter_college,M,6,Subway,40.768141,-73.96387,Uptown & The Bronx,Downtown
379,MN08,MN08 Upper East Side-Roosevelt Island (CD 8 Equivalent),54915.0914677,55211707.6907,Manhattan,57.0,72_st,6714288.0,72_st,475.0,477.0,477,Q03,IND,Second Av,72_st,M,Q,Subway,40.768799,-73.958424,Uptown,Downtown & Brooklyn
380,MN08,MN08 Upper East Side-Roosevelt Island (CD 8 Equivalent),54915.0914677,55211707.6907,Manhattan,94.0,77_st,4484397.0,77_st,399.0,398.0,398,627,IRT,Lexington Av,77_st,M,6,Subway,40.77362,-73.959874,Uptown & The Bronx,Downtown
381,MN08,MN08 Upper East Side-Roosevelt Island (CD 8 Equivalent),54915.0914677,55211707.6907,Manhattan,20.0,86_st,11659593.0,86_st,474.0,476.0,476,Q04,IND,Second Av,86_st,M,Q,Subway,40.777891,-73.951787,Uptown,Downtown & Brooklyn
382,MN08,MN08 Upper East Side-Roosevelt Island (CD 8 Equivalent),54915.0914677,55211707.6907,Manhattan,19.0,86_st,11659593.0,86_st,398.0,397.0,397,626,IRT,Lexington Av,86_st,M,4 5 6,Subway,40.779492,-73.955589,Uptown & The Bronx,Downtown & Brooklyn
383,MN08,MN08 Upper East Side-Roosevelt Island (CD 8 Equivalent),54915.0914677,55211707.6907,Manhattan,45.0,96_st,8468126.0,96_st,397.0,396.0,396,625,IRT,Lexington Av,96_st,M,6,Subway,40.785672,-73.95107,Uptown & The Bronx,Downtown
384,MN09,MN09 Morningside Heights-Hamilton Heights (CD 9 Equivalent),34907.1414364,42642075.2019,Manhattan,222.0,135_st,1889587.0,135_st,152.0,152.0,152,A14,IND,8th Av - Fulton St,135_st,M,B C,Subway,40.817894,-73.947649,Uptown & The Bronx,Downtown & Brooklyn
385,MN09,MN09 Morningside Heights-Hamilton Heights (CD 9 Equivalent),34907.1414364,42642075.2019,Manhattan,288.0,116_st_columbia,1319622.0,116_st_columbia_university,308.0,307.0,307,117,IRT,Broadway - 7Av,116_st_columbia_university,M,1,Subway,40.807722,-73.96411,Uptown & The Bronx,Downtown
386,MN09,MN09 Morningside Heights-Hamilton Heights (CD 9 Equivalent),34907.1414364,42642075.2019,Manhattan,28.0,125_st,10578275.0,125_st,153.0,153.0,153,A15,IND,8th Av - Fulton St,125_st,M,A B C D,Subway,40.811109,-73.952343,Uptown & The Bronx,Downtown & Brooklyn
387,MN09,MN09 Morningside Heights-Hamilton Heights (CD 9 Equivalent),34907.1414364,42642075.2019,Manhattan,29.0,125_st,10578275.0,125_st,307.0,306.0,306,116,IRT,Broadway - 7Av,125_st,M,1,Elevated,40.815581,-73.958372,Uptown & The Bronx,Downtown
388,MN09,MN09 Morningside Heights-Hamilton Heights (CD 9 Equivalent),34907.1414364,42642075.2019,Manhattan,207.0,137_st_city_col,2080460.0,137_st_city_college,306.0,305.0,305,115,IRT,Broadway - 7Av,137_st_city_college,M,1,Subway,40.822008,-73.953676,Uptown & The Bronx,Downtown
389,MN09,MN09 Morningside Heights-Hamilton Heights (CD 9 Equivalent),34907.1414364,42642075.2019,Manhattan,78.0,145_st,5067293.0,145_st,150.0,151.0,151,A12,IND,8th Av - Fulton St,145_st,M,A C,Subway,40.824783,-73.944216,Uptown & The Bronx,Downtown & Brooklyn
390,MN09,MN09 Morningside Heights-Hamilton Heights (CD 9 Equivalent),34907.1414364,42642075.2019,Manhattan,79.0,145_st,5067293.0,145_st,151.0,151.0,151,D13,IND,Concourse,145_st,M,B D,Subway,40.824783,-73.944216,Uptown & The Bronx,Downtown & Brooklyn
391,MN09,MN09 Morningside Heights-Hamilton Heights (CD 9 Equivalent),34907.1414364,42642075.2019,Manhattan,80.0,145_st,5067293.0,145_st,305.0,304.0,304,114,IRT,Broadway - 7Av,145_st,M,1,Subway,40.826551,-73.95036,Uptown & The Bronx,Downtown
392,MN09,MN09 Morningside Heights-Hamilton Heights (CD 9 Equivalent),34907.1414364,42642075.2019,Manhattan,350.0,155_st,924555.0,155_st,149.0,150.0,150,A11,IND,8th Av - Fulton St,155_st,M,C,Subway,40.830518,-73.941514,Uptown,Downtown & Brooklyn
393,MN10,MN10 Harlem (CD 10 Equivalent),36209.2258886,38229637.6879,Manhattan,294.0,central_pk_n110,1294069.0,central_park_north_110_st,442.0,441.0,441,227,IRT,Lenox - White Plains Rd,central_park_north_110_st,M,2 3,Subway,40.799075,-73.951822,Uptown & The Bronx,Downtown & Brooklyn
394,MN10,MN10 Harlem (CD 10 Equivalent),36209.2258886,38229637.6879,Manhattan,90.0,116_st,4534431.0,116_st,154.0,154.0,154,A16,IND,8th Av - Fulton St,116_st,M,B C,Subway,40.805085,-73.954882,Uptown & The Bronx,Downtown & Brooklyn
395,MN10,MN10 Harlem (CD 10 Equivalent),36209.2258886,38229637.6879,Manhattan,92.0,116_st,4534431.0,116_st,441.0,440.0,440,226,IRT,Lenox - White Plains Rd,116_st,M,2 3,Subway,40.802098,-73.949625,Uptown & The Bronx,Downtown & Brooklyn
396,MN10,MN10 Harlem (CD 10 Equivalent),36209.2258886,38229637.6879,Manhattan,31.0,125_st,10578275.0,125_st,440.0,439.0,439,225,IRT,Lenox - White Plains Rd,125_st,M,2 3,Subway,40.807754,-73.945495,Uptown & The Bronx,Downtown & Brooklyn
397,MN10,MN10 Harlem (CD 10 Equivalent),36209.2258886,38229637.6879,Manhattan,223.0,135_st,1889587.0,135_st,439.0,438.0,438,224,IRT,Lenox - White Plains Rd,135_st,M,2 3,Subway,40.814229,-73.94077,Uptown & The Bronx,Downtown & Brooklyn
398,MN10,MN10 Harlem (CD 10 Equivalent),36209.2258886,38229637.6879,Manhattan,81.0,145_st,5067293.0,145_st,438.0,437.0,437,302,IRT,Lenox - White Plains Rd,145_st,M,3,Subway,40.820421,-73.936245,148 St,Downtown & Brooklyn
399,MN10,MN10 Harlem (CD 10 Equivalent),36209.2258886,38229637.6879,Manhattan,428.0,harlem_148_st,591165.0,harlem_148_st,437.0,436.0,436,301,IRT,Lenox - White Plains Rd,harlem_148_st,M,3,Subway,40.82388,-73.93647,,Downtown & Brooklyn
400,MN10,MN10 Harlem (CD 10 Equivalent),36209.2258886,38229637.6879,Manhattan,351.0,155_st,924555.0,155_st,221.0,220.0,220,D12,IND,Concourse,155_st,M,B D,Subway,40.830135,-73.938209,The Bronx,Downtown & Brooklyn
401,MN11,MN11 East Harlem (CD 11 Equivalent),61499.30911,66224965.7154,Manhattan,46.0,96_st,8468126.0,96_st,473.0,475.0,475,Q05,IND,Second Av,96_st,M,Q,Subway,40.784318,-73.947152,,Downtown & Brooklyn
402,MN11,MN11 East Harlem (CD 11 Equivalent),61499.30911,66224965.7154,Manhattan,100.0,103_st,4162000.0,103_st,396.0,395.0,395,624,IRT,Lexington Av,103_st,M,6,Subway,40.7906,-73.947478,Uptown & The Bronx,Downtown
403,MN11,MN11 East Harlem (CD 11 Equivalent),61499.30911,66224965.7154,Manhattan,231.0,110_st,1816125.0,110_st,395.0,394.0,394,623,IRT,Lexington Av,110_st,M,6,Subway,40.79502,-73.94425,Uptown & The Bronx,Downtown
404,MN11,MN11 East Harlem (CD 11 Equivalent),61499.30911,66224965.7154,Manhattan,91.0,116_st,4534431.0,116_st,394.0,393.0,393,622,IRT,Lexington Av,116_st,M,6,Subway,40.798629,-73.941617,Uptown & The Bronx,Downtown
405,MN11,MN11 East Harlem (CD 11 Equivalent),61499.30911,66224965.7154,Manhattan,30.0,125_st,10578275.0,125_st,393.0,392.0,392,621,IRT,Lexington Av,125_st,M,4 5 6,Subway,40.804138,-73.937594,The Bronx,Downtown & Brooklyn
406,MN12,MN12 Washington Heights-Inwood (CD 12 Equivalent),54910.8539456,77999512.5484,Manhattan,246.0,157_st,1618339.0,157_st,304.0,303.0,303,113,IRT,Broadway - 7Av,157_st,M,1,Subway,40.834041,-73.94489,Uptown & The Bronx,Downtown
407,MN12,MN12 Washington Heights-Inwood (CD 12 Equivalent),54910.8539456,77999512.5484,Manhattan,401.0,163_st_amsterdm,689552.0,163_st_amsterdam_av,148.0,149.0,149,A10,IND,8th Av - Fulton St,163_st_amsterdam_av,M,C,Subway,40.836013,-73.939892,Uptown,Downtown & Brooklyn
408,MN12,MN12 Washington Heights-Inwood (CD 12 Equivalent),54910.8539456,77999512.5484,Manhattan,126.0,168_st,3270807.0,168_st,147.0,148.0,605,A09,IND,8th Av - Fulton St,168_st,M,A C,Subway,40.840719,-73.939561,207 St,Downtown & Brooklyn
409,MN12,MN12 Washington Heights-Inwood (CD 12 Equivalent),54910.8539456,77999512.5484,Manhattan,271.0,175_st,1456370.0,175_st,146.0,147.0,147,A07,IND,8th Av - Fulton St,175_st,M,A,Subway,40.847391,-73.939704,207 St,Downtown & Brooklyn
410,MN12,MN12 Washington Heights-Inwood (CD 12 Equivalent),54910.8539456,77999512.5484,Manhattan,125.0,181_st,3279035.0,181_st,302.0,301.0,301,111,IRT,Broadway - 7Av,181_st,M,1,Subway,40.849505,-73.933596,Uptown & The Bronx,Downtown
411,MN12,MN12 Washington Heights-Inwood (CD 12 Equivalent),54910.8539456,77999512.5484,Manhattan,124.0,181_st,3279035.0,181_st,145.0,146.0,146,A06,IND,8th Av - Fulton St,181_st,M,A,Subway,40.851695,-73.937969,207 St,Downtown & Brooklyn
412,MN12,MN12 Washington Heights-Inwood (CD 12 Equivalent),54910.8539456,77999512.5484,Manhattan,272.0,191_st,1429220.0,191_st,301.0,300.0,300,110,IRT,Broadway - 7Av,191_st,M,1,Subway,40.855225,-73.929412,Uptown & The Bronx,Downtown
413,MN12,MN12 Washington Heights-Inwood (CD 12 Equivalent),54910.8539456,77999512.5484,Manhattan,466.0,190_st,420556.0,190_st,144.0,145.0,145,A05,IND,8th Av - Fulton St,190_st,M,A,Subway,40.859022,-73.93418,207 St,Downtown & Brooklyn
414,MN12,MN12 Washington Heights-Inwood (CD 12 Equivalent),54910.8539456,77999512.5484,Manhattan,256.0,dyckman_st,1518091.0,dyckman_st,300.0,299.0,299,109,IRT,Broadway - 7Av,dyckman_st,M,1,Elevated,40.860531,-73.925536,Uptown & The Bronx,Downtown
415,MN12,MN12 Washington Heights-Inwood (CD 12 Equivalent),54910.8539456,77999512.5484,Manhattan,370.0,207_st,828885.0,207_st,299.0,298.0,298,108,IRT,Broadway - 7Av,207_st,M,1,Elevated,40.864621,-73.918822,Uptown & The Bronx,Downtown
416,MN12,MN12 Washington Heights-Inwood (CD 12 Equivalent),54910.8539456,77999512.5484,Manhattan,255.0,dyckman_st,1518091.0,dyckman_st,143.0,144.0,144,A03,IND,8th Av - Fulton St,dyckman_st,M,A,Subway,40.865491,-73.927271,207 St,Downtown & Brooklyn
417,MN12,MN12 Washington Heights-Inwood (CD 12 Equivalent),54910.8539456,77999512.5484,Manhattan,330.0,inwood_207_st,1069319.0,inwood_207_st,142.0,143.0,143,A02,IND,8th Av - Fulton St,inwood_207_st,M,A,Subway,40.868072,-73.919899,,Downtown & Brooklyn
418,MN12,MN12 Washington Heights-Inwood (CD 12 Equivalent),54910.8539456,77999512.5484,Manhattan,497.0,215_st,223020.0,215_st,298.0,297.0,297,107,IRT,Broadway - 7Av,215_st,M,1,Elevated,40.869444,-73.915279,The Bronx,Downtown
419,MN64,MN64 Central Park (JIA 64 Equivalent),32721.0975973,38312378.6101,Manhattan,55.0,72_st,6714288.0,72_st,160.0,160.0,160,A22,IND,8th Av - Fulton St,72_st,M,B C,Subway,40.775594,-73.97641,Uptown & The Bronx,Downtown & Brooklyn
420,MN64,MN64 Central Park (JIA 64 Equivalent),32721.0975973,38312378.6101,Manhattan,386.0,4_av_9_st,749740.0,5_av_59_st,8.0,8.0,8,R13,BMT,Astoria,5_av_59_st,M,N W R,Subway,40.764811,-73.973347,Queens,Downtown & Brooklyn
421,MN64,MN64 Central Park (JIA 64 Equivalent),32721.0975973,38312378.6101,Manhattan,220.0,5_av_59_st,1894290.0,5_av_59_st,8.0,8.0,8,R13,BMT,Astoria,5_av_59_st,M,N W R,Subway,40.764811,-73.973347,Queens,Downtown & Brooklyn
422,MN64,MN64 Central Park (JIA 64 Equivalent),32721.0975973,38312378.6101,Manhattan,291.0,4av_9_st,1299922.0,5_av_59_st,8.0,8.0,8,R13,BMT,Astoria,5_av_59_st,M,N W R,Subway,40.764811,-73.973347,Queens,Downtown & Brooklyn
423,MN64,MN64 Central Park (JIA 64 Equivalent),32721.0975973,38312378.6101,Manhattan,17.0,86_st,11659593.0,86_st,158.0,158.0,158,A20,IND,8th Av - Fulton St,86_st,M,B C,Subway,40.785868,-73.968916,Uptown & The Bronx,Downtown & Brooklyn
424,MN64,MN64 Central Park (JIA 64 Equivalent),32721.0975973,38312378.6101,Manhattan,43.0,96_st,8468126.0,96_st,157.0,157.0,157,A19,IND,8th Av - Fulton St,96_st,M,B C,Subway,40.791642,-73.964696,Uptown & The Bronx,Downtown & Brooklyn
425,MN64,MN64 Central Park (JIA 64 Equivalent),32721.0975973,38312378.6101,Manhattan,98.0,103_st,4162000.0,103_st,156.0,156.0,156,A18,IND,8th Av - Fulton St,103_st,M,B C,Subway,40.796092,-73.961454,Uptown & The Bronx,Downtown & Brooklyn
426,QN01,QN01 Astoria-Queensbridge (CD 1 Equivalent),90634.3579526,173972628.274,Queens,195.0,36_st,2219201.0,36_st,273.0,272.0,272,G20,IND,Queens Blvd,36_st,Q,M R,Subway,40.752039,-73.928781,Forest Hills,Manhattan
427,QN01,QN01 Astoria-Queensbridge (CD 1 Equivalent),90634.3579526,173972628.274,Queens,213.0,queens_plaza,2017278.0,queens_plaza,274.0,273.0,273,G21,IND,Queens Blvd,queens_plaza,Q,E M R,Subway,40.748973,-73.937243,Forest Hills - Jamaica,Manhattan
428,QN01,QN01 Astoria-Queensbridge (CD 1 Equivalent),90634.3579526,173972628.274,Queens,446.0,39_av,518876.0,39_av,6.0,6.0,6,R08,BMT,Astoria,39_av,Q,N W,Elevated,40.752882,-73.932755,Astoria - Ditmars Blvd,Manhattan
429,QN01,QN01 Astoria-Queensbridge (CD 1 Equivalent),90634.3579526,173972628.274,Queens,251.0,21_st_qnsbridge,1581514.0,21_st_queensbridge,222.0,221.0,221,B04,IND,63rd St,21_st_queensbridge,Q,F,Subway,40.754203,-73.942836,Jamaica,Manhattan
430,QN01,QN01 Astoria-Queensbridge (CD 1 Equivalent),90634.3579526,173972628.274,Queens,327.0,36_av,1089263.0,36_av,5.0,5.0,5,R06,BMT,Astoria,36_av,Q,N W,Elevated,40.756804,-73.929575,Astoria - Ditmars Blvd,Manhattan
431,QN01,QN01 Astoria-Queensbridge (CD 1 Equivalent),90634.3579526,173972628.274,Queens,300.0,46_st,1272333.0,46_st,271.0,270.0,270,G18,IND,Queens Blvd,46_st,Q,M R,Subway,40.756312,-73.913333,Forest Hills,Manhattan
432,QN01,QN01 Astoria-Queensbridge (CD 1 Equivalent),90634.3579526,173972628.274,Queens,229.0,steinway_st,1833123.0,steinway_st,272.0,271.0,271,G19,IND,Queens Blvd,steinway_st,Q,M R,Subway,40.756879,-73.92074,Forest Hills,Manhattan
433,QN01,QN01 Astoria-Queensbridge (CD 1 Equivalent),90634.3579526,173972628.274,Queens,162.0,broadway,2519165.0,broadway,4.0,4.0,4,R05,BMT,Astoria,broadway,Q,N W,Elevated,40.76182,-73.925508,Astoria - Ditmars Blvd,Manhattan
434,QN01,QN01 Astoria-Queensbridge (CD 1 Equivalent),90634.3579526,173972628.274,Queens,227.0,30_av,1842558.0,30_av,3.0,3.0,3,R04,BMT,Astoria,30_av,Q,N W,Elevated,40.766779,-73.921479,Astoria - Ditmars Blvd,Manhattan
435,QN01,QN01 Astoria-Queensbridge (CD 1 Equivalent),90634.3579526,173972628.274,Queens,250.0,astoria_blvd,1587692.0,astoria_blvd,2.0,2.0,2,R03,BMT,Astoria,astoria_blvd,Q,N W,Elevated,40.770258,-73.917843,Ditmars Blvd,Manhattan
436,QN01,QN01 Astoria-Queensbridge (CD 1 Equivalent),90634.3579526,173972628.274,Queens,204.0,astoria_ditmars,2132846.0,astoria_ditmars_blvd,1.0,1.0,1,R01,BMT,Astoria,astoria_ditmars_blvd,Q,N W,Elevated,40.775036,-73.912034,,Manhattan
437,QN02,QN02 Long Island City-Sunnyside-Woodside (CD 2 Approximation),75387.1615467,131321157.315,Queens,228.0,vernon_jackson,1839897.0,vernon_blvd_jackson_av,466.0,464.0,464,721,IRT,Flushing,vernon_blvd_jackson_av,Q,7,Subway,40.742626,-73.953581,Flushing,Manhattan
438,QN02,QN02 Long Island City-Sunnyside-Woodside (CD 2 Approximation),75387.1615467,131321157.315,Queens,373.0,hunters_pt_av,798478.0,hunters_point_av,465.0,463.0,463,720,IRT,Flushing,hunters_point_av,Q,7,Subway,40.742216,-73.948916,Flushing,Manhattan
439,QN02,QN02 Long Island City-Sunnyside-Woodside (CD 2 Approximation),75387.1615467,131321157.315,Queens,485.0,21_st,330649.0,21_st,283.0,282.0,282,G24,IND,Crosstown,21_st,Q,G,Subway,40.744065,-73.949724,Court Sq,Brooklyn
440,QN02,QN02 Long Island City-Sunnyside-Woodside (CD 2 Approximation),75387.1615467,131321157.315,Queens,131.0,33_st,3157015.0,33_st,461.0,460.0,460,716,IRT,Flushing,33_st,Q,7,Elevated,40.744587,-73.930997,Flushing,Manhattan
441,QN02,QN02 Long Island City-Sunnyside-Woodside (CD 2 Approximation),75387.1615467,131321157.315,Queens,301.0,46_st,1272333.0,46_st,459.0,458.0,458,714,IRT,Flushing,46_st,Q,7,Elevated,40.743132,-73.918435,Flushing,Manhattan
442,QN02,QN02 Long Island City-Sunnyside-Woodside (CD 2 Approximation),75387.1615467,131321157.315,Queens,322.0,52_st,1106763.0,52_st,458.0,457.0,457,713,IRT,Flushing,52_st,Q,7,Elevated,40.744149,-73.912549,Flushing,Manhattan
443,QN02,QN02 Long Island City-Sunnyside-Woodside (CD 2 Approximation),75387.1615467,131321157.315,Queens,328.0,northern_blvd,1078845.0,northern_blvd,270.0,269.0,269,G16,IND,Queens Blvd,northern_blvd,Q,M R,Subway,40.752885,-73.906006,Forest Hills,Manhattan
444,QN02,QN02 Long Island City-Sunnyside-Woodside (CD 2 Approximation),75387.1615467,131321157.315,Queens,133.0,61_st_woodside,3137518.0,woodside_61_st,457.0,456.0,456,712,IRT,Flushing,woodside_61_st,Q,7,Elevated,40.74563,-73.902984,Flushing,Manhattan
445,QN02,QN02 Long Island City-Sunnyside-Woodside (CD 2 Approximation),75387.1615467,131321157.315,Queens,316.0,69_st,1152882.0,69_st,456.0,455.0,455,711,IRT,Flushing,69_st,Q,7,Elevated,40.746325,-73.896403,Flushing,Manhattan
446,QN02,QN02 Long Island City-Sunnyside-Woodside (CD 2 Approximation),75387.1615467,131321157.315,Queens,440.0,65_st,538535.0,65_st,269.0,268.0,268,G15,IND,Queens Blvd,65_st,Q,M R,Subway,40.749669,-73.898453,Forest Hills,Manhattan
447,QN02,QN02 Long Island City-Sunnyside-Woodside (CD 2 Approximation),75387.1615467,131321157.315,Queens,185.0,court_sq,2304735.0,court_sq,282.0,281.0,606,G22,IND,Crosstown,court_sq,Q,G,Subway,40.746554,-73.943832,,Brooklyn
448,QN02,QN02 Long Island City-Sunnyside-Woodside (CD 2 Approximation),75387.1615467,131321157.315,Queens,186.0,court_sq,2304735.0,court_sq,464.0,462.0,606,719,IRT,Flushing,court_sq,Q,7,Elevated,40.747023,-73.945264,Flushing,Manhattan
449,QN02,QN02 Long Island City-Sunnyside-Woodside (CD 2 Approximation),75387.1615467,131321157.315,Queens,184.0,court_sq,2304735.0,court_sq,275.0,274.0,606,F09,IND,Queens Blvd,court_sq,Q,E M,Subway,40.747846,-73.946,Forest Hills - Jamaica,Manhattan
450,QN02,QN02 Long Island City-Sunnyside-Woodside (CD 2 Approximation),75387.1615467,131321157.315,Queens,296.0,queensboro_plz,1281627.0,queensboro_plaza,463.0,461.0,461,R09,BMT,Astoria,queensboro_plaza,Q,N W,Elevated,40.750582,-73.940202,Astoria - Flushing,Manhattan
451,QN02,QN02 Long Island City-Sunnyside-Woodside (CD 2 Approximation),75387.1615467,131321157.315,Queens,295.0,queensboro_plz,1281627.0,queensboro_plaza,462.0,461.0,461,718,IRT,Flushing,queensboro_plaza,Q,7,Elevated,40.750582,-73.940202,Astoria - Flushing,Manhattan
452,QN03,QN03 Jackson Heights-East Elmhurst (CD 3 Approximation),35967.2917868,82041931.955,Queens,286.0,33_st_rawson_st,1328782.0,82_st_jackson_hts,454.0,453.0,453,709,IRT,Flushing,82_st_jackson_hts,Q,7,Elevated,40.747659,-73.883697,Flushing,Manhattan
453,QN03,QN03 Jackson Heights-East Elmhurst (CD 3 Approximation),35967.2917868,82041931.955,Queens,147.0,82_st_jackson_h,2654091.0,82_st_jackson_hts,454.0,453.0,453,709,IRT,Flushing,82_st_jackson_hts,Q,7,Elevated,40.747659,-73.883697,Flushing,Manhattan
454,QN03,QN03 Jackson Heights-East Elmhurst (CD 3 Approximation),35967.2917868,82041931.955,Queens,175.0,90_st_elmhurst,2376142.0,90_st_elmhurst_av,453.0,452.0,452,708,IRT,Flushing,90_st_elmhurst_av,Q,7,Elevated,40.748408,-73.876613,Flushing,Manhattan
455,QN03,QN03 Jackson Heights-East Elmhurst (CD 3 Approximation),35967.2917868,82041931.955,Queens,159.0,111_st,2546978.0,111_st,450.0,449.0,449,705,IRT,Flushing,111_st,Q,7,Elevated,40.75173,-73.855334,Flushing,Manhattan
456,QN04,QN04 Elmhurst-Corona (CD 4 Approximation),42650.318474,66127703.7292,Queens,123.0,woodhaven_blvd,3288149.0,woodhaven_blvd,265.0,264.0,264,G11,IND,Queens Blvd,woodhaven_blvd,Q,M R,Subway,40.733106,-73.869229,Forest Hills,Manhattan
457,QN04,QN04 Elmhurst-Corona (CD 4 Approximation),42650.318474,66127703.7292,Queens,187.0,grand_newtown,2293722.0,grand_av_newtown,266.0,265.0,265,G12,IND,Queens Blvd,grand_av_newtown,Q,M R,Subway,40.737015,-73.877223,Forest Hills,Manhattan
458,QN04,QN04 Elmhurst-Corona (CD 4 Approximation),42650.318474,66127703.7292,Queens,304.0,elmhurst_av,1261942.0,elmhurst_av,267.0,266.0,266,G13,IND,Queens Blvd,elmhurst_av,Q,M R,Subway,40.742454,-73.882017,Forest Hills,Manhattan
459,QN04,QN04 Elmhurst-Corona (CD 4 Approximation),42650.318474,66127703.7292,Queens,119.0,103_st_corona,3338326.0,103_st_corona_plaza,451.0,450.0,450,706,IRT,Flushing,103_st_corona_plaza,Q,7,Elevated,40.749865,-73.8627,Flushing,Manhattan
460,QN04,QN04 Elmhurst-Corona (CD 4 Approximation),42650.318474,66127703.7292,Queens,64.0,jksn_ht_roosvlt,6373910.0,jackson_hts_roosevelt_av,268.0,267.0,616,G14,IND,Queens Blvd,jackson_hts_roosevelt_av,Q,E F M R,Subway,40.746644,-73.891338,Forest Hills - Jamaica,Manhattan
461,QN04,QN04 Elmhurst-Corona (CD 4 Approximation),42650.318474,66127703.7292,Queens,365.0,74_st_broadway,856721.0,74_st_broadway,455.0,454.0,616,710,IRT,Flushing,74_st_broadway,Q,7,Elevated,40.746848,-73.891394,Flushing,Manhattan
462,QN04,QN04 Elmhurst-Corona (CD 4 Approximation),42650.318474,66127703.7292,Queens,117.0,junction_blvd,3433314.0,junction_blvd,452.0,451.0,451,707,IRT,Flushing,junction_blvd,Q,7,Elevated,40.749145,-73.869527,Flushing,Manhattan
463,QN05,QN05 Ridgewood-Maspeth-Middle Village (CD 5 Approximation),79203.1456334,218953728.345,Queens,234.0,halsey_st,1697778.0,halsey_st,129.0,129.0,129,L19,BMT,Canarsie,halsey_st,Q,L,Subway,40.695602,-73.904084,Manhattan,Canarsie - Rockaway Parkway
464,QN05,QN05 Ridgewood-Maspeth-Middle Village (CD 5 Approximation),79203.1456334,218953728.345,Queens,452.0,seneca_ave,479867.0,seneca_av,111.0,111.0,111,M06,BMT,Myrtle Av,seneca_av,Q,M,Elevated,40.702762,-73.90774,Manhattan,Metropolitan Av
465,QN05,QN05 Ridgewood-Maspeth-Middle Village (CD 5 Approximation),79203.1456334,218953728.345,Queens,416.0,forest_ave,630197.0,forest_av,110.0,110.0,110,M05,BMT,Myrtle Av,forest_av,Q,M,Elevated,40.704423,-73.903077,Manhattan,Metropolitan Av
466,QN05,QN05 Ridgewood-Maspeth-Middle Village (CD 5 Approximation),79203.1456334,218953728.345,Queens,338.0,fresh_pond_rd,1029949.0,fresh_pond_rd,109.0,109.0,109,M04,BMT,Myrtle Av,fresh_pond_rd,Q,M,Elevated,40.706186,-73.895877,Manhattan,Metropolitan Av
467,QN06,QN06 Forest Hills-Rego Park (CD 6 Approximation),38027.2381557,78147218.8494,Queens,481.0,75_av,346231.0,75_av,261.0,260.0,260,F07,IND,Queens Blvd,75_av,Q,E F,Subway,40.718331,-73.837324,Jamaica,Manhattan
468,QN06,QN06 Forest Hills-Rego Park (CD 6 Approximation),38027.2381557,78147218.8494,Queens,138.0,forest_hills_71,3085021.0,forest_hills_71_av,262.0,261.0,261,G08,IND,Queens Blvd,forest_hills_71_av,Q,E F M R,Subway,40.721691,-73.844521,Jamaica,Manhattan
469,QN06,QN06 Forest Hills-Rego Park (CD 6 Approximation),38027.2381557,78147218.8494,Queens,347.0,67_av,939861.0,67_av,263.0,262.0,262,G09,IND,Queens Blvd,67_av,Q,M R,Subway,40.726523,-73.852719,Forest Hills,Manhattan
470,QN06,QN06 Forest Hills-Rego Park (CD 6 Approximation),38027.2381557,78147218.8494,Queens,249.0,63_dr_rego_park,1597759.0,63_dr_rego_park,264.0,263.0,263,G10,IND,Queens Blvd,63_dr_rego_park,Q,M R,Subway,40.729846,-73.861604,Forest Hills,Manhattan
471,QN07,QN07 Flushing-Murray Hill-Whitestone (CD 7 Approximation),149508.304682,329718612.693,Queens,47.0,flushing_main,8264358.0,flushing_main_st,448.0,447.0,447,701,IRT,Flushing,flushing_main_st,Q,7,Subway,40.7596,-73.83003,,Manhattan
473,QN09,QN09 Kew Gardens-Richmond Hill-Woodhaven (CD 9 Approximation),57049.8065101,108218626.55,Queens,453.0,85_st_forest_pk,479721.0,85_st_forest_pkwy,84.0,84.0,84,J16,BMT,Jamaica,85_st_forest_pkwy,Q,J,Elevated,40.692435,-73.86001,Jamaica,Manhattan
474,QN09,QN09 Kew Gardens-Richmond Hill-Woodhaven (CD 9 Approximation),57049.8065101,108218626.55,Queens,122.0,woodhaven_blvd,3288149.0,woodhaven_blvd,83.0,83.0,83,J15,BMT,Jamaica,woodhaven_blvd,Q,J Z,Elevated,40.693879,-73.851576,Jamaica,Manhattan
475,QN09,QN09 Kew Gardens-Richmond Hill-Woodhaven (CD 9 Approximation),57049.8065101,108218626.55,Queens,426.0,104_st,591903.0,104_st,82.0,82.0,82,J14,BMT,Jamaica,104_st,Q,J Z,Elevated,40.695178,-73.84433,Jamaica,Manhattan
476,QN09,QN09 Kew Gardens-Richmond Hill-Woodhaven (CD 9 Approximation),57049.8065101,108218626.55,Queens,157.0,111_st,2546978.0,111_st,81.0,81.0,81,J13,BMT,Jamaica,111_st,Q,J,Elevated,40.697418,-73.836345,Jamaica,Manhattan
477,QN09,QN09 Kew Gardens-Richmond Hill-Woodhaven (CD 9 Approximation),57049.8065101,108218626.55,Queens,486.0,121_st,329004.0,121_st,80.0,80.0,80,J12,BMT,Jamaica,121_st,Q,J Z,Elevated,40.700492,-73.828294,Jamaica,Manhattan
478,QN09,QN09 Kew Gardens-Richmond Hill-Woodhaven (CD 9 Approximation),57049.8065101,108218626.55,Queens,377.0,jamaica_van_wk,787407.0,jamaica_van_wyck,281.0,280.0,280,G07,IND,Queens - Archer,jamaica_van_wyck,Q,E,Subway,40.702566,-73.816859,Jamaica Center,Manhattan
479,QN09,QN09 Kew Gardens-Richmond Hill-Woodhaven (CD 9 Approximation),57049.8065101,108218626.55,Queens,418.0,briarwood,627260.0,briarwood_van_wyck_blvd,259.0,258.0,258,F05,IND,Queens Blvd,briarwood_van_wyck_blvd,Q,E F,Subway,40.709179,-73.820574,Jamaica,Manhattan
480,QN10,QN10 South Ozone Park-Howard Beach (CD 10 Approximation),111148.515908,171397748.568,Queens,498.0,aqueduct_n.cond,217684.0,aqueduct_n_conduit_av,198.0,197.0,197,H02,IND,Rockaway,aqueduct_n_conduit_av,Q,A,At Grade,40.668234,-73.834058,Manhattan,Rockaways
481,QN10,QN10 South Ozone Park-Howard Beach (CD 10 Approximation),111148.515908,171397748.568,Queens,508.0,aqueduct_racetr,105514.0,aqueduct_racetrack,197.0,196.0,196,H01,IND,Rockaway,aqueduct_racetrack,Q,A,At Grade,40.672097,-73.835919,Manhattan,Rockaways
482,QN10,QN10 South Ozone Park-Howard Beach (CD 10 Approximation),111148.515908,171397748.568,Queens,441.0,80_st,535811.0,80_st,191.0,190.0,190,A59,IND,Liberty Av,80_st,Q,A,Elevated,40.679371,-73.858992,Manhattan,Lefferts - Rockaways
483,QN10,QN10 South Ozone Park-Howard Beach (CD 10 Approximation),111148.515908,171397748.568,Queens,488.0,88_st,315450.0,88_st,192.0,191.0,191,A60,IND,Liberty Av,88_st,Q,A,Elevated,40.679843,-73.85147,Manhattan,Lefferts - Rockaways
484,QN10,QN10 South Ozone Park-Howard Beach (CD 10 Approximation),111148.515908,171397748.568,Queens,381.0,rockaway_blvd,765952.0,rockaway_blvd,193.0,192.0,192,A61,IND,Liberty Av,rockaway_blvd,Q,A,Elevated,40.680429,-73.843853,Manhattan,Lefferts - Rockaways
485,QN10,QN10 South Ozone Park-Howard Beach (CD 10 Approximation),111148.515908,171397748.568,Queens,427.0,104_st,591903.0,104_st,194.0,193.0,193,A63,IND,Liberty Av,104_st,Q,A,Elevated,40.681711,-73.837683,Manhattan,Lefferts Blvd
486,QN10,QN10 South Ozone Park-Howard Beach (CD 10 Approximation),111148.515908,171397748.568,Queens,158.0,111_st,2546978.0,111_st,195.0,194.0,194,A64,IND,Liberty Av,111_st,Q,A,Elevated,40.684331,-73.832163,Manhattan,Lefferts Blvd
487,QN10,QN10 South Ozone Park-Howard Beach (CD 10 Approximation),111148.515908,171397748.568,Queens,317.0,ozone_pk_leffrt,1132241.0,ozone_park_lefferts_blvd,196.0,195.0,195,A65,IND,Liberty Av,ozone_park_lefferts_blvd,Q,A,Elevated,40.685951,-73.825798,Manhattan,
489,QN12,QN12 Jamaica-St. Albans-Hollis (CD 12 Approximation),70946.3370402,265852102.183,Queens,103.0,jamaica_center,4012219.0,jamaica_center_parsons_archer,279.0,278.0,278,G05,IND,Queens - Archer,jamaica_center_parsons_archer,Q,E J Z,Subway,40.702147,-73.801109,,Manhattan
490,QN12,QN12 Jamaica-St. Albans-Hollis (CD 12 Approximation),70946.3370402,265852102.183,Queens,407.0,sutphin_blvd,656877.0,sutphin_blvd,258.0,257.0,257,F04,IND,Queens Blvd,sutphin_blvd,Q,F,Subway,40.70546,-73.810708,179 St,Manhattan
491,QN12,QN12 Jamaica-St. Albans-Hollis (CD 12 Approximation),70946.3370402,265852102.183,Queens,116.0,sutphin_archer,3636245.0,sutphin_blvd,258.0,257.0,257,F04,IND,Queens Blvd,sutphin_blvd,Q,F,Subway,40.70546,-73.810708,179 St,Manhattan
492,QN12,QN12 Jamaica-St. Albans-Hollis (CD 12 Approximation),70946.3370402,265852102.183,Queens,314.0,parsons_blvd,1162036.0,parsons_blvd,257.0,256.0,256,F03,IND,Queens Blvd,parsons_blvd,Q,F,Subway,40.707564,-73.803326,179 St,Manhattan
493,QN12,QN12 Jamaica-St. Albans-Hollis (CD 12 Approximation),70946.3370402,265852102.183,Queens,287.0,169_st,1322836.0,169_st,256.0,255.0,255,F02,IND,Queens Blvd,169_st,Q,F,Subway,40.71047,-73.793604,179 St,Manhattan
494,QN12,QN12 Jamaica-St. Albans-Hollis (CD 12 Approximation),70946.3370402,265852102.183,Queens,178.0,jamaica_179_st,2335793.0,jamaica_179_st,255.0,254.0,254,F01,IND,Queens Blvd,jamaica_179_st,Q,F,Subway,40.712646,-73.783817,,Manhattan
495,QN12,QN12 Jamaica-St. Albans-Hollis (CD 12 Approximation),70946.3370402,265852102.183,Queens,211.0,jfk_jamaica_ct1,2043916.0,jamaica_179_st,255.0,254.0,254,F01,IND,Queens Blvd,jamaica_179_st,Q,F,Subway,40.712646,-73.783817,,Manhattan
497,QN14,QN14 The Rockaways (CD 14 Approximation),218736.572036,189116616.922,Queens,510.0,beach_105_st,63787.0,beach_105_st,203.0,202.0,202,H14,IND,Rockaway,beach_105_st,Q,A S,Viaduct,40.583209,-73.827559,Manhattan,Rockaway Park
498,QN14,QN14 The Rockaways (CD 14 Approximation),218736.572036,189116616.922,Queens,509.0,beach_98_st,91844.0,beach_98_st,202.0,201.0,201,H13,IND,Rockaway,beach_98_st,Q,A S,Viaduct,40.585307,-73.820558,Manhattan,Rockaway Park
499,QN14,QN14 The Rockaways (CD 14 Approximation),218736.572036,189116616.922,Queens,506.0,beach_90_st,150907.0,beach_90_st,201.0,200.0,200,H12,IND,Rockaway,beach_90_st,Q,A S,Viaduct,40.588034,-73.813641,Manhattan,Rockaway Park
500,QN14,QN14 The Rockaways (CD 14 Approximation),218736.572036,189116616.922,Queens,487.0,beach_67_st,328022.0,beach_67_st,205.0,204.0,204,H06,IND,Rockaway,beach_67_st,Q,A,Viaduct,40.590927,-73.796924,Manhattan,Far Rockaway
501,QN14,QN14 The Rockaways (CD 14 Approximation),218736.572036,189116616.922,Queens,491.0,beach_60_st,301766.0,beach_60_st,206.0,205.0,205,H07,IND,Rockaway,beach_60_st,Q,A,Viaduct,40.592374,-73.788522,Manhattan,Far Rockaway
502,QN14,QN14 The Rockaways (CD 14 Approximation),218736.572036,189116616.922,Queens,507.0,beach_44_st,148164.0,beach_44_st,207.0,206.0,206,H08,IND,Rockaway,beach_44_st,Q,A,Viaduct,40.592943,-73.776013,Manhattan,Far Rockaway
503,QN14,QN14 The Rockaways (CD 14 Approximation),218736.572036,189116616.922,Queens,501.0,beach_36_st,183882.0,beach_36_st,208.0,207.0,207,H09,IND,Rockaway,beach_36_st,Q,A,Viaduct,40.595398,-73.768175,Manhattan,Far Rockaway
504,QN14,QN14 The Rockaways (CD 14 Approximation),218736.572036,189116616.922,Queens,483.0,beach_25_st,340887.0,beach_25_st,209.0,208.0,208,H10,IND,Rockaway,beach_25_st,Q,A,Viaduct,40.600066,-73.761353,Manhattan,Far Rockaway
505,QN14,QN14 The Rockaways (CD 14 Approximation),218736.572036,189116616.922,Queens,372.0,far_rockaway,802633.0,far_rockaway_mott_av,210.0,209.0,209,H11,IND,Rockaway,far_rockaway_mott_av,Q,A,Viaduct,40.603995,-73.755405,Manhattan,
506,QN14,QN14 The Rockaways (CD 14 Approximation),218736.572036,189116616.922,Queens,512.0,broad_channel,40614.0,broad_channel,200.0,199.0,199,H04,IND,Rockaway,broad_channel,Q,A S,At Grade,40.608382,-73.815925,Manhattan,Rockaways
508,QN81,QN81 Flushing Meadows-Corona Park (JIA 81 Approximation),61473.3235462,55241396.6786,Queens,120.0,kew_gardens,3320582.0,kew_gardens_union_tpke,260.0,259.0,259,F06,IND,Queens Blvd,kew_gardens_union_tpke,Q,E F,Subway,40.714441,-73.831008,Jamaica,Manhattan
509,QN81,QN81 Flushing Meadows-Corona Park (JIA 81 Approximation),61473.3235462,55241396.6786,Queens,342.0,mets_willets_pt,1000109.0,mets_willets_point,449.0,448.0,448,702,IRT,Flushing,mets_willets_point,Q,7,Elevated,40.754622,-73.845625,Flushing,Manhattan
511,QN83,QN83 JFK International Airport (JIA 83 Approximation),103377.672988,197189236.084,Queens,383.0,howard_bch_jfk,755417.0,howard_beach_jfk_airport,199.0,198.0,198,H03,IND,Rockaway,howard_beach_jfk_airport,Q,A,At Grade,40.660476,-73.830301,Manhattan,Rockaways
513,SI01,SI01 North Shore (CD 1 Equivalent),153754.773653,377299027.496,Staten Island,511.0,tompkinsville,62040.0,tompkinsville,477.0,502.0,502,S30,SIR,Staten Island,tompkinsville,SI,SIR,At Grade,40.636949,-74.074835,St George,Tottenville
514,SI01,SI01 North Shore (CD 1 Equivalent),153754.773653,377299027.496,Staten Island,395.0,st._george,712883.0,st_george,476.0,501.0,501,S31,SIR,Staten Island,st_george,SI,SIR,Open Cut,40.643748,-74.073643,,Tottenville
